@lat,@lon,name,tourism,historic,amenity,leisure,religion,natural,description
50.1431696,14.4518470,menhir Zkamenělý slouha,attraction,archaeological_site,,,,stone,
50.0644233,14.4173861,Vyšehrad,attraction,,,,,,
50.1079309,14.3849833,Zemní pyramidy,attraction,,,,,,
50.0312204,14.3198472,Symbolická brána,attraction,,,,,,
50.1160170,14.4106499,lachtani,attraction,,,,,,
50.0309812,14.3169457,Placatá skála,attraction,,,,,,
50.0643113,14.4191425,Čertův sloup,attraction,boundary_stone,,,,,
50.0898925,14.3987514,Matyášova brána,attraction,,,,,,
50.0903231,14.4003806,svatý Jiří,attraction,memorial,,,,,
50.1321898,14.5175225,L-39 Albatros,attraction,,,,,,
50.0360540,14.3551746,kamenné sochy,attraction,,,,,,
49.9624393,14.4083413,Závist,attraction,,,,,,
49.9710546,14.4146720,Šance,attraction,,,,,,
50.0263009,14.4878085,,attraction,,,,,tree,
50.0289187,14.4876340,Hraniční dub,attraction,,,,,tree,
50.0782356,14.3192415,Bílá hora,attraction,,,,,peak,
50.1445545,14.4828950,bývalá Battistova cihelna,attraction,,,,,,
50.0892920,14.4065157,grotta,attraction,,,,,,
50.0259400,14.4867115,Dub Jaroslava Jíry,attraction,,,,,tree,
50.1169938,14.4143838,expozice výroby vína,attraction,,,,,,
50.1175230,14.4123521,viniční lis,attraction,,,,,,
50.0259434,14.4872189,Dub Miloslava Bureše,attraction,,,,,tree,
50.0863116,14.4143906,svatý Václav,attraction,memorial,,,,,Viniční sloup se sochou svatého Václava
50.1303855,14.4416468,,attraction,,,,,tree,
50.0892509,14.3915129,Loretánská zvonohra,attraction,,,,,,
50.0823170,14.4077913,Veršomat,attraction,,,,,,
50.0857934,14.4035508,Pražské Jezulátko,attraction,,,,,,
50.0867985,14.4165155,Barokní knihovní sál,attraction,,,,,,
50.0869198,14.4165128,Zrcadlová kaple,attraction,,place_of_worship,,christian,,
50.0865908,14.4108808,Svržení Jana Nepomuckého z mostu,attraction,wayside_shrine,,,christian,,
50.0843662,14.4230850,středověký hradební můstek,attraction,ruins,,,,,ve vestibulu metra
50.1320127,14.2845813,,attraction,,,,,,
50.0825484,14.4148092,,attraction,,,,,,
50.0883710,14.4249736,Jan Václav Vratislav z Mitrovic,attraction,tomb,,,,,
50.0882744,14.4246229,Zlodějova ruka,attraction,,,,,,
50.1181815,14.4073611,Afrika,attraction,,,,,,
50.1194829,14.4023088,Severský les,attraction,,,,,,
50.1197317,14.4015084,kiangové,attraction,,,,,,
50.1199009,14.4028164,levharti,attraction,,,,,,Levhart Mandžuský
50.1199478,14.4032442,tygři,attraction,,,,,,Tygr Usurijský
50.1196563,14.4040322,sovy,attraction,,,,,,
50.1191806,14.4055776,Údolí slonů,attraction,,,,,,
50.1202643,14.4056652,"žirafy, pštrosi, přímorožci, antilopy losí",attraction,,,,,,
50.1197256,14.4064694,vodušky,attraction,,,,,,
50.1198958,14.4069374,surikaty,attraction,,,,,,
50.1198261,14.4071680,hrabáči,attraction,,,,,,
50.1198665,14.4077718,štětkouni,attraction,,,,,,
50.1183179,14.4072796,antilopy,attraction,,,,,,
50.1178924,14.4085056,jihoamerické šelmy,attraction,,,,,,
50.1183150,14.4088467,sitatungy,attraction,,,,,,
50.1180885,14.4090727,vydry,attraction,,,,,,
50.1183374,14.4095826,medojedi,attraction,,,,,,
50.1185562,14.4033013,Pláně,attraction,,,,,,
50.1182392,14.4067014,lamy,attraction,,,,,,
50.1184049,14.4059108,Napříč kontinenty,attraction,,,,,,
50.1184818,14.4052627,anoa,attraction,,,,,,
50.1187951,14.4050118,hyeny,attraction,,,,,,
50.1187242,14.4039918,pekariové,attraction,,,,,,
50.1180378,14.4033002,velbloudi,attraction,,,,,,
50.1183898,14.4028401,bizoni,attraction,,,,,,
50.1188990,14.4038371,takini,attraction,,,,,,
50.1189714,14.4030957,zubři,attraction,,,,,,
50.1189585,14.4043602,vlci,attraction,,,,,,Vlk Euroasijský
50.1192593,14.4032778,sobi,attraction,,,,,,
50.1191001,14.4025233,losi,attraction,,,,,,
50.1194748,14.4017443,jeleni,attraction,,,,,,
50.1178329,14.4077202,zebry,attraction,,,,,,
50.1180836,14.4071112,nosáli,attraction,,,,,,
50.1176905,14.4065271,adaxi,attraction,,,,,,
50.1177312,14.4061126,klokani,attraction,,,,,,
50.1178098,14.4058449,vlci hřivnatí,attraction,,,,,,
50.1175850,14.4053732,koně Převalského,attraction,,,,,,
50.1182000,14.4046506,sambaři,attraction,,,,,,
50.1176705,14.4042652,přímorožci,attraction,,,,,,
50.1178429,14.4038517,jeleni,attraction,,,,,,
50.1171526,14.4031902,orlosupi,attraction,,,,,,
50.1175741,14.4026378,Skalní masiv,attraction,,,,,,
50.1172825,14.4019534,Ptačí mokřady,attraction,,,,,,
50.1172196,14.4014018,ibisové,attraction,,,,,,
50.1175490,14.4024501,kozorožci,attraction,,,,,,
50.1179262,14.4016044,tahři,attraction,,,,,,
50.1159215,14.4085902,chápani,attraction,,,,,,
50.1157328,14.4078508,,attraction,,,,,,
50.1158804,14.4075627,giboni,attraction,,,,,,
50.1161075,14.4070059,plameňáci,attraction,,,,,,
50.1151259,14.4069513,,attraction,,,,,,
50.1155717,14.4046267,tamaríni,attraction,,,,,,
50.1159192,14.4043440,gepardi,attraction,,,,,,
50.1161509,14.4054595,kotulové,attraction,,,,,,
50.1167382,14.4066215,kolpíci,attraction,,,,,,
50.1165279,14.4068930,pelikáni,attraction,,,,,,
50.1165011,14.4074232,mravenečníci,attraction,,,,,,
50.1153853,14.4079880,sitatungy,attraction,,,,,,
50.1153655,14.4089960,orli,attraction,,,,,,
50.1155898,14.4086516,tapíři,attraction,,,,,,
50.1157650,14.4091363,plameňáci,attraction,,,,,,
50.1155430,14.4096792,supi,attraction,,,,,,
50.1164732,14.4089684,tapíři,attraction,,,,,,
50.1161234,14.4093268,dvojzoborožci,attraction,,,,,,
50.1164184,14.4095337,sojkovci,attraction,,,,,,
50.1168048,14.4086920,bažanti,attraction,,,,,,
50.1167031,14.4092894,psouni,attraction,,,,,,
50.1167122,14.4097459,lemuři,attraction,,,,,,
50.1170194,14.4103485,pandy červené,attraction,,,,,,
50.1171991,14.4102181,urzoni,attraction,,,,,,
50.1176347,14.4082579,klokani,attraction,,,,,,
50.1173614,14.4085113,loriové,attraction,,,,,,
50.1175994,14.4077440,emuové,attraction,,,,,,
50.1176089,14.4078121,Austrálie,attraction,,,,,,
50.1175030,14.4070315,kasuáři,attraction,,,,,,
50.1174516,14.4060804,loriové,attraction,,,,,,
50.1168052,14.4053417,ibisové,attraction,,,,,,
50.1168848,14.4044974,paovce,attraction,,,,,,
50.1170393,14.4033686,magoti,attraction,,,,,,
50.1164815,14.4032402,tygři,attraction,,,,,,
50.1168005,14.4028301,kachny,attraction,,,,,,
50.1169881,14.4023522,jeřábi,attraction,,,,,,
50.1167248,14.4018592,člunozobci,attraction,,,,,,
50.0730106,14.4312778,,attraction,,,,,,
50.0869802,14.4207138,Staroměstský orloj,attraction,,clock,,,,
50.0934302,14.4254051,,attraction,,,,,,
50.1161040,14.4101343,tučňáci,attraction,,,,,,
50.1157561,14.4051870,gorily,attraction,,,,,,
50.1186877,14.3999907,,attraction,,,,,,
50.1160519,14.4031400,lvi,attraction,,,,,,
50.1162372,14.4050488,želvy,attraction,,,,,,
50.1163422,14.4053762,,attraction,highwater_mark,,,,,
50.1207492,14.4051987,Africký výběh,attraction,,,,,,
50.1182372,14.4094889,mangusty,attraction,,,,,,
50.1182760,14.4095580,dikobrazi,attraction,,,,,,
50.0908297,14.4529347,,attraction,highwater_mark,,,,,
50.0869027,14.5640235,,attraction,,bicycle_parking,,,,
50.1052048,14.5743839,,attraction,,,,,,
50.0885117,14.3996190,Nerudova,attraction,,,,,,
50.1175979,14.4078879,Peacock,attraction,,,,,,
50.0655580,14.4010838,,attraction,,,,,,
50.1165168,14.4027489,Radar,attraction,,,,,,
50.0879278,14.4095378,,attraction,,,,,,
50.0903099,14.3981389,Plečnikova Pyramida,attraction,,,,,,
50.1697474,14.4036377,,attraction,highwater_mark,,,,,
50.0878324,14.4096113,Vinárna Čertovka,attraction,,,,,,
50.1077884,14.4215269,,attraction,,,,,,
50.1718237,14.2647115,viadukt u Nového mlýna,attraction,,,,,,
50.1012962,14.4250832,Kompostér,attraction,,,,,,
50.0869939,14.4207067,Staroměstský orloj,attraction,,,,,,
50.0845087,14.4591701,Kryt civilního obyvatelstva Parukářka,attraction,,,,,,
50.0538588,14.3367171,Hůrka,attraction,,,,,,
50.0467184,14.4864902,Spořilov,attraction,,,,,,
50.1449386,14.4759938,Ďáblice,attraction,,,,,,
50.1444204,14.4838556,Nejstarší panelový dům v Praze,attraction,,,,,,
50.1184473,14.4080932,hroch,attraction,,,,,,
50.1186551,14.4023223,,attraction,,,,,,
50.1169970,14.4045151,,attraction,,,,,,
50.1167783,14.4040800,,attraction,,,,,,
50.1170822,14.4044364,,attraction,,,,,,
50.1170533,14.4044364,,attraction,,,,,,
50.1179731,14.4047738,,attraction,,,,,,
50.1664978,14.4045812,,attraction,highwater_mark,,,,,
50.0884431,14.4030317,Svatováclavská rotunda,attraction,ruins,,,,,
50.1452326,14.5876298,Skalní most,attraction,,,,,,
50.0264559,14.4479729,,attraction,,,,,,
50.1052775,14.4274023,Apollo 11 - přistávací modul,attraction,,,,,,
49.9661891,14.4246256,zahradní orloj,attraction,,,,,,
50.0665743,14.3224442,Střed průsečíků extrémních bodů ČR,attraction,,,,,,
50.1159148,14.4064957,Dětská tramvaj v ZOO Praha,attraction,,,,,,
50.0852717,14.4239185,Thrill Park,attraction,,,,,,
50.0837708,14.4235699,Palác Euro,attraction,,,,,,
