@lat,@lon,name,tourism,historic,amenity,leisure,religion,natural,description
45.9113712,10.8338622,Cascata del Varone,attraction,,,,,,
45.8453740,11.0130416,Ruina Dantesca,attraction,,,,,,
45.8739840,11.0388813,Campana dei Caduti,attraction,monument,,,,,
46.0091160,10.9732452,Carega del Diaol,attraction,archaeological_site,,,,,
45.9033082,11.1359144,Cascata dell'Hofentol,attraction,,,,,,
46.0650426,11.0419875,Santuario e Monastero Sant'Anna,attraction,,,,,,
45.8891430,11.0160727,Opera Ciclica,attraction,,,,,,
45.8602988,10.9678543,Prea dela farina,attraction,,,,,,
45.7447116,11.2412551,Segheria Veneziana,attraction,,,,,,
45.7571120,11.2581139,,attraction,,,,,,
46.4438054,11.1422773,Canyon Rio Sass,attraction,,,,,,
46.4446615,11.2455579,Eislöcher - Buche di ghiaccio,attraction,,,,,,
46.3227322,11.3488580,Naturparkhaus Trudner Horn - Centro visite Parco Naturale Monte Corno,attraction,,,,,,
46.3205281,11.3399159,Kalkbrennofen - Calcara,attraction,,,,,,
45.6309027,11.0930570,Valle delle Sfingi,attraction,,,,,,
46.1466485,11.4363642,Orto Botanico,attraction,,,,,,
46.0096081,11.3054200,Tomba romana (Roman sarcophagus),attraction,archaeological_site,,,,,
45.6503358,10.9893763,Malga Faggioli,attraction,,restaurant,,,,Goat farm. All kinds of Goat cheese and goat mild products.
46.4914054,10.8930012,Urlärchen,attraction,monument,,,,,
45.6210264,11.5583227,Villa Da Porto-Casarotto,attraction,,,,,,"architetto Ottone Calderari, 1770"
45.6174503,11.5437034,Villa Da Porto Pedrotti,attraction,,,,,,"architetto Andrea Palladio, 1554. Dipinti di"
45.9299671,10.8257563,Travaglio,attraction,,,,,,
46.3661900,10.8935403,Mulino ad acqua,attraction,,,,,,
46.4076181,10.8114890,Seghja di Braghje,attraction,,,,,,
45.9690179,10.9375511,Fine Ferrata Rio Sallagoni,attraction,,,,,,
46.4246483,11.9331554,Serrai di Sottoguda,attraction,,,,,,
45.6081021,10.8163403,Platano dei 100 bersaglieri,attraction,tree,,,,tree,
45.8797071,10.8852714,Marmitte dei Giganti,attraction,,,,,,
46.0480176,10.9406939,,attraction,wayside_cross,,,,,
45.7347306,11.5151429,Villa Giusti,attraction,manor,,,,,
45.8678559,11.6348076,Calá del Sasso,attraction,,,,,,
45.8435538,11.6681485,Grotte di Oliero,attraction,,,,,cave_entrance,
46.0638713,11.1234120,Arco dei Tre Portoni,attraction,yes,,,,,
45.8900043,11.4598554,Acropark Laghetto Roana,attraction,,,,,,
46.2306230,11.2925030,Sega Veneziana,attraction,,,,,,
46.4729378,11.8736383,Via Ferrata Trincee,attraction,,,,,,
45.9346702,10.9066705,Cave Alte,attraction,,,,,cave_entrance,
45.6711480,11.5540659,Villa Cita,attraction,,,,,,
46.4106830,10.7884130,Segheria Veneziana,attraction,,,,,,
45.8457696,11.0365434,sito paleontologico Lavini di Marco,attraction,,,,,,Orme di dinosauri
45.8352950,11.2820880,Calcara,attraction,,,,,,
46.2372187,11.2142918,Cascata - Wasserfall,attraction,,,,,,
45.6142694,11.0678370,Giassara del Modesto,attraction,,,,,,antica ghiacciaia
45.6141658,11.0678328,Stalla del Modesto,attraction,,,,,,
45.8606946,11.6566083,Calieroni,attraction,,,,,,
45.7917633,11.8339933,Villa Albrizzi Marini,attraction,manor,,,,,
45.7690102,11.7325263,Castello degli Ezzelini,attraction,castle,,,,,
45.7536301,11.7312590,Villa Giusti,attraction,monument,,,,,
45.7651577,11.7353971,Chiesetta Dell'Angelo,attraction,,,,,,
45.7693029,11.7327588,Duomo di Santa Maria in Colle,attraction,church,place_of_worship,,christian,,
45.7659345,11.7317326,Porta di Brenta,attraction,monument,,,,,
45.9018285,12.0015991,Villa dei Cedri,attraction,monument,,,,,
45.6969635,11.8327978,Villa di Castione,attraction,monument,,,,,
45.7445069,11.2445164,Vecchio Majo,attraction,,,,,,
45.7901292,11.8354937,Barchessa Villa Rubelli,attraction,manor,,,,,
45.6626426,11.8324403,Villa Imperiale,attraction,monument,,,,,
45.7287213,11.9134114,Casa di Papa Sarto,attraction,,,,,,
45.7094077,11.9114708,Cà Miane,attraction,,,,,,
45.7998659,11.9140994,Resti Teatro Romano,attraction,,,,,,
45.8017916,11.9125750,Teatro di Asolo,attraction,,,,,,
45.7551277,11.7438039,Villa Cà Rezzonico,attraction,monument,,,,,
45.7073202,11.7994369,Villa Sebellin,attraction,,,,,,
45.7698763,11.7305583,Porta delle Barchette,attraction,,,,,,
45.7777349,11.7323446,Villa Cà Erizzo Luca,attraction,manor,,,,,
45.7551314,11.6716433,Villa Bevilacqua,attraction,,,,,,
45.7994226,11.7128905,Tomba Teofilo Folengo-Monastero,attraction,,,,,,
46.0352208,11.8835283,Fabbrica di Pedavena,attraction,,,,,,
45.8085257,11.2326555,Calcara,attraction,ruins,,,,,
45.7805168,11.8402704,Villa Rovero,attraction,monument,,,,,
46.1345118,11.7451166,Stoli del Monte Totoga,attraction,,,,,,
45.9335722,10.9061374,Conformazione glaciale,attraction,,,,,,
45.7903040,11.8352279,Villa Rubelli,attraction,manor,,,,,
45.7675860,11.7357036,Palazzo Agostinelli,attraction,,,,,,
45.7690324,11.7333394,Torre di Ser Ivano,attraction,monument,,,,,
46.0000000,10.6929597,Linea del 46° parallelo,attraction,,,,,,
46.0720844,11.3862456,Glockenthurm,attraction,,,,,,
45.8649320,10.8810677,Busatte,attraction,,,,,,
45.7456142,11.9492457,Villa Axel Castelli,attraction,,,,,,
45.8729108,11.4712051,Graffiti,attraction,,,,,,
46.1766553,11.8180530,Guane,attraction,,,,,,
46.1798067,11.8164518,Troi del Musica,attraction,,,,,,
45.7935659,11.9247071,Villa Rinaldi,attraction,,,,,,
45.7635999,11.7334446,Tempio Ossario,attraction,,,,,,
45.9204493,10.6147159,Parco delle Plazze,attraction,,,,,,
45.9648906,10.6542207,Cascata di Rio Revegler,attraction,,,,,,
45.9490431,11.7258081,Covolo di Butistone,attraction,castle,,,,,
45.7943045,11.8401245,Casa Noè Bordignon,attraction,,,,,,
45.6496674,11.1442090,Madonna della Lobbia,attraction,wayside_shrine,,,christian,,
45.9315425,10.7607948,Caverna Capitano Riccabona,attraction,military,,,,,
46.3971725,11.2346516,Hochseilgarten Kaltern - Parco Avventura Caldaro,attraction,,,,,,
45.6614159,11.1913058,Calcara,attraction,ruins,,,,,
45.8059912,10.5512489,,attraction,,,,,,
45.9116235,10.8351932,Cascata del Varone,attraction,,,,,,
46.0729515,11.4937739,Fontana Vecchia,attraction,monument,fountain,,,,
46.3826306,11.7765592,Cannoniera Italiana,attraction,,,,,,
46.3852136,11.7781610,military,attraction,,,,,,
45.7712681,10.7611448,Scala Tonda,attraction,,,,,,
45.7245532,10.7996622,Baloc taca via,attraction,,,,,,
46.0503849,10.8999923,Canyon del Limaro,attraction,,,,,,
46.0010779,10.9733394,Fonte Romana,attraction,archaeological_site,,,,,
46.1687904,10.7144566,Cascate Nardis,attraction,,,,,,
46.4637932,11.8917139,Kanone,attraction,,,,,,
45.7029892,11.5901472,Chiesetta di San Gaetano,attraction,,,,,,
45.7468247,11.5338830,Villa Piovene,attraction,manor,,,,,
45.5461870,11.5465512,Casa Antonio Pigafetta,attraction,,,,,,
45.5689306,11.3698558,Villa Trissino Marzotto,attraction,,,,,,
45.8862053,10.8419703,Porta San Michele,attraction,,,,,,
45.5469333,11.5401860,Loggia Valmarana,attraction,,,,,,
46.2821558,11.3537169,Calcara,attraction,,,,,,
46.4760183,10.6235575,Felsspalten - Fessure,attraction,,,,,,
46.2395184,11.2237977,Kalkofen - Calcara,attraction,,,,,,
46.0238266,11.7923866,Casa delle Fate,attraction,,,,,,
46.4216520,11.2523075,Locomotiva 835.322,attraction,locomotive,,,,,
45.8865443,10.8398249,Porta San Marco,attraction,,,,,,
46.4036545,11.7881963,"Mostra fotografica ""Guerra alla Guerra""",attraction,,,,,,
46.4400209,11.1363509,Orologio ad acqua,attraction,,clock,,,,
46.4368385,11.1335914,Canyon Rio Sass,attraction,,,,,,
46.4389489,11.1377519,Canyon Rio Sass,attraction,,,,,,
46.0488286,11.2760712,Forno Maso Emer,attraction,monument,,,,,
45.7435690,10.6228235,El Cuel del Zanzanù,attraction,,,,,,
45.5428861,11.7872500,Loco delle Vergini,attraction,,,,,,
46.1209255,11.3786794,Gruab va Hardimbl - Miniera dell'Erdemolo,attraction,,,,,,
45.5894084,11.3897996,Villa Piovene da Schio,attraction,monument,,,,,
45.7840543,11.6928693,Cascata del Silan,attraction,,,,,,
45.7216997,11.7462431,Villa Cà Dolfin,attraction,monument,,,,,
45.6787341,11.7771195,Villa Giustinian,attraction,monument,,,,,
46.0541905,11.4585231,Palazzo Armellini-Sette,attraction,yes,,,,,
46.4703874,11.9520120,Postazioni della Grande Guerra,attraction,,,,,,
46.4698177,11.9542201,Postazioni della Grande Guerra,attraction,,,,,,
45.5507896,11.5450053,ruota dell'ex-Tipografia Rumor,attraction,water_wheel,,,,,
45.5508552,11.5450425,ruota dell'ex-Tipografia Rumor,attraction,water_wheel,,,,,
46.4818375,11.1370352,Ginepro dei Pradaci,attraction,,,,,tree,
46.0636388,11.6126326,Labirinto,attraction,,,,,,
46.1817599,11.2694709,Piramidi di Segonzano,attraction,,,,,rock,
46.4059131,10.7892188,Cascate Ragaiolo,attraction,,,,,,
45.5456277,11.5440703,Criptoportico Romano,attraction,,,,,,
45.9550508,11.8586347,Roccia Forata,attraction,,,,,,
45.8556622,12.0172827,Villa Bellati,attraction,,,,,,
46.1735880,11.1453408,,attraction,lime_kiln,,,,,
46.1768357,11.1520813,,attraction,lime_kiln,,,,,
46.0969444,11.5243738,Pria Lunella,attraction,,,,,rock,
45.9302600,11.1144859,Fontana del Castel,attraction,fountain,watering_place,,,,
46.1220486,11.1169085,Villa Salvadori Zanatta,attraction,,,,,,
45.6488837,11.7855221,Palazzo Pretorio,attraction,,,,,,
45.6543767,10.7345129,,attraction,,,,,,
46.0797269,11.5434326,Tiglio secolare,attraction,yes,,,,tree,
46.0447441,11.1124826,Ferrari F. Lunelli,attraction,,,,,,
46.1768992,11.8321647,Palazzo Someda,attraction,,,,,,
46.1748726,11.8261046,Nuova Canonica,attraction,,,,,,
46.1744406,11.8253381,Madonna dei sette dolori,attraction,,,,,,
46.1742692,11.8249963,Capitello della Peste,attraction,wayside_shrine,,,,,
46.1743910,11.8246349,Casa Lenzi,attraction,,,,,,
46.1732568,11.8234544,Lisiéra,attraction,,,,,,
46.1720057,11.8230912,Cimitero Monumentale,attraction,,,,,,
46.1750459,11.8273821,Rivetta Koch,attraction,,,,,,
46.1839281,11.8373704,Campagna,attraction,,,common,,,
45.8077723,10.7769714,,attraction,,,,,,
46.4293535,10.9157056,Larice di Bresimo,attraction,,,,,tree,
46.0642625,11.6104436,Roccolo,attraction,,,,,,
45.8672948,11.4774553,,attraction,locomotive,,,,,
46.0592803,11.2492931,Castello di Pergine,attraction,castle,,,,,
45.5584069,11.6031673,Villa Ghislanzoni,attraction,manor,,,,,
46.0183250,10.8112658,La Bifora,attraction,,,,,,
46.3755040,11.8659810,Cascata di Barezze,attraction,,,,,,Cascata delle Barezza
46.0101443,11.6380511,,attraction,archaeological_site,,,,,
46.0736524,11.1509504,Cascata dell'Orrido,attraction,,,,,,
45.9217859,11.0060628,Machina da bater,attraction,,,,,,Trebbiatrice storica
45.7212172,12.0133123,Villa Pola,attraction,,,,,,
45.5510538,11.5390321,Bambini,attraction,,,,,,
45.5445218,11.5483360,Palazzi Gualdo,attraction,,,,,,
45.8800633,10.8852769,Marmitta dei Giganti,attraction,,,,,cave_entrance,
46.3628801,11.4116996,Bletterbach-Schlucht - Gola del Bletterbach,attraction,,,,,,
45.8778167,10.8383646,Strada del Ponale,attraction,,,,,,
45.8741342,10.8374419,Strada del Ponale,attraction,,,,,,
46.3912600,11.7763815,Ricoveri per truppe Italiane guerra 1914 - 1918,attraction,,,,,,
46.3913979,11.7741138,POSTAZIONE ITALIANA GUERRA 1914 - 1918,attraction,,,,,,
46.3891537,11.7714428,RICOVERI PER TRUPPE ITALIANE - GUERRA 1914 - 1918,attraction,,,,,,
46.3852721,11.7764283,POSTAZIONE ITALIANA PRIMA GUERRA MONDIALE 1914 - 1918,attraction,,,,,,
46.3852703,11.7782360,RICOVERI PER TRUPPE ITALIANE PRIMA GUERRA MONDIALE 1914 - 1918,attraction,,,,,,
45.5427817,10.8492418,Antica fontana di Caranzano,attraction,,,,,,
45.8476533,11.8404835,Giardino vegetazionale Astego,attraction,,,,,,
46.0544318,11.4590321,Palazzo Bertondello Hippoliti,attraction,yes,,,,,
46.0540000,11.4576736,Antica casa della Magnifica Comunità del Borgo,attraction,yes,,,,,
46.0544529,11.4554713,Palazzo Zanelli,attraction,yes,,,,,
45.5441242,11.7851255,Villa Contarini,attraction,yes,,,,,
46.2267387,11.2962659,Molino Nones,attraction,,,,,,
45.8300817,11.2124745,Autocarro storico FIAT 666N7,attraction,ruins,,,,,
45.9701010,10.9340989,Inizio Ferrata Rio Sallagoni,attraction,,,,,,
46.2868098,10.6748938,Ponte,attraction,,,,,,
46.2893546,10.6960140,Madonnina,attraction,,,,,,
46.2746602,10.7065281,Ponte,attraction,,,,,,
46.4061413,10.7892811,Ponte sospeso,attraction,,,,,,
45.5531606,11.6698589,Mulino Tacchi,attraction,yes,,,,,
45.6989112,11.7698885,Caravelle I-DABT,attraction,aircraft,,,,,
46.2187711,11.3957510,zirmo dai zochi alti Abete monumentiate,attraction,,,,,,
46.2737741,11.4506681,El pezo de Gazolin,attraction,,,,,,
46.3194908,11.4398130,Il rifugio,attraction,,,,,,
46.2832802,11.3937191,Larice di confine,attraction,,,,,,
46.0296011,11.8260661,,attraction,,,,,,
45.7660576,10.8086894,Affresco medioevale,attraction,,,,,,
45.7661330,10.8087930,Antico ingresso principale,attraction,,,,,,
45.7661009,10.8089623,Ingresso da Via Castello,attraction,,,,,,
45.7662124,10.8089344,Rivellino di epoca austriaca,attraction,,,,,,
45.7659668,10.8085816,Rivellino fortificacione avanzata,attraction,,,,,,
46.0351711,10.3415641,Bedolina Map,attraction,archaeological_site,,,,,
45.5485983,11.5462816,Palazzo Thiene,attraction,,,,,,
45.7083500,11.5626317,Antica Giassara,attraction,,,,,,
45.7069038,11.5792902,Chiesetta di Santo Stefano,attraction,,,,,,
46.0064135,11.1989310,Casa natale Santa Paolina,attraction,memorial,,,,,
45.5068726,10.8406024,Locomotiva 835.015,attraction,locomotive,,,,,
46.0744947,11.1204538,Locomotiva 625.011,attraction,locomotive,,,,,
46.1017242,11.0956799,Rimorchiata CP 2 della ferrovia Trento-Malè,attraction,railway_car,,,,,
46.1018144,11.0957315,Elettrotreno della ferrovia Trento-Malè,attraction,locomotive,,,,,
45.6264829,11.7035100,Locomotiva 880.002,attraction,locomotive,,,,,
45.8413098,11.9700186,Locomotiva 740.439,attraction,locomotive,,,,,
45.8189523,10.9403917,Casa nel bosco,attraction,,,,,,
45.8169011,10.9452879,Casa del Bersaglio,attraction,,,,,,
45.5473296,11.5468628,Torre Bisara,attraction,,,,,,
46.4528385,11.4627350,Sternwarte & Teleskop Max Valier - Osservatorio Max Valier,attraction,,,,,,
45.6497725,11.3007943,Elettromotrice FTV 01,attraction,locomotive,,,,,
45.8526738,11.3289022,Spada nella Roccia,attraction,,,,,,
46.0516399,10.8455932,Ponte Pià,attraction,,,,,,
46.1067761,11.3007899,Ponte del Diaol,attraction,,,,,,
46.0277599,11.7728751,Aquila,attraction,,,,,,
45.9351503,10.9067375,Cave Alte,attraction,,,,,cave_entrance,
45.8553016,11.5681931,,attraction,,,,,,
46.1571374,11.7943935,Ponte di funi,attraction,,,,,,
45.6088078,11.9808532,Presepe del Palù,attraction,,,,,,
45.5440776,11.4065823,Le Spurghe,attraction,,,,,,
45.6314250,11.4563375,Elettromotrice tranviaria FTV,attraction,locomotive,,,,,
45.8899968,11.0454990,Il presepe meccanico degli scout,attraction,,,,,,
