@lat,@lon,amenity,cuisine,name,opening_hours,diet:vegetarian,diet:vegan
41.1888232,16.6718730,restaurant,pizza,Il Porticciolo,,,
41.1307725,16.5404709,restaurant,,Il Vicolo,,,
41.1064475,16.9197148,restaurant,pizza,Pizzeria San Marco,,,
40.9692697,16.9206528,restaurant,,,,,
41.1385020,16.5477041,restaurant,,Relais degli Ulivi,,,
41.1304372,16.5493373,restaurant,italian,Braci piacenti,,,
41.1150595,16.8727470,restaurant,chinese,Sole Rosso,,,
41.1154633,16.8724688,restaurant,,Pizzeria Joseph,,,
41.1135393,16.8732556,restaurant,japanese,Sushi Lin,,,
41.1306924,16.5513302,restaurant,pizza,Pizzeria Pineta,,,
41.1267971,16.8717494,restaurant,pizza,Pizzeria Diana,,,
41.1274257,16.8716786,restaurant,,Biergarten da Gianna,,,
41.1271714,16.8716834,restaurant,pizza,Pizzeria il Veliero,,,
41.1275807,16.8720675,restaurant,pizza,Pizzeria il Ferrarese,,,
41.1275878,16.8722577,restaurant,,Paria,,,
41.1279130,16.8714243,restaurant,,La parrilla de Juan,,,
41.1279194,16.8729492,restaurant,italian,Terrazza Venezia,,,
41.2120987,16.5522104,restaurant,,Taverna del Gigante,,,
41.1306798,16.5473013,restaurant,italian,La Lupa,,,
41.0980054,16.8675964,restaurant,,Pizzeria Tarantini,,,
41.0037597,17.2014609,restaurant,,Cozze Nere,,,
41.0137942,17.1927037,restaurant,italian,La Veranda di Giselda,Mo-Su 07:30-24:00,,
41.0137439,17.1939843,restaurant,,La colonna,,,
41.0027249,17.2024521,restaurant,seafood,Da Tuccino,,,
41.1085726,16.8761256,restaurant,,,,,
41.1085645,16.8768552,restaurant,,L'Osteria di Mario,,,
41.1066921,16.9043464,restaurant,,Cris & Bio,,,
41.1003609,16.8353971,restaurant,italian;pizza,RistoPizza Country Club,,,
41.0971612,16.8552172,restaurant,,Bari a Tavola,,,
41.0923281,16.8671304,restaurant,pizza,Pizzeria Opera Prima,,,
41.1290730,16.5419500,restaurant,,Trattoria La Frascèr,,,
40.9578715,17.1906958,restaurant,steak_house;barbecue;regional;local,"Hostaria ""La Baracca""","We-Mo 13:00-15:00, 19:00-23:30",,
41.0975914,16.8712591,restaurant,,U' gnore,,,
41.1059473,16.8662077,restaurant,chinese,Ristorante Cinese,,,
41.1059089,16.8670042,restaurant,pizza,Pizzeria Di Cosimo,,,
41.1055009,16.8784361,restaurant,regional,Da Nonno Marcello,,,
40.9901846,17.2284908,restaurant,italian,Pizzeria Happy Days,,,
40.9949915,17.2152353,restaurant,,Villa degli Aranci,,,
41.1248632,16.8685251,restaurant,italian,Capriccio e Tentazione,,,
40.9815190,17.1838235,restaurant,,Sala ricevimenti Villa Anthos,,,
41.0879355,16.9999658,restaurant,fish,Zia Teresa,,,
41.0133604,17.1918476,restaurant,italian,La locanda dell'abbazia,,,
41.1227537,16.8641786,restaurant,italian,Pizzeria Il Rustico,,,
40.9963593,17.2232295,restaurant,italian,Ristorante Pizzeria Grotta Ardito,,,
41.1015074,16.8765143,restaurant,,La 'Mbriana,,,
41.0889131,16.8650678,restaurant,pizza,Pizzeria Quadrifoglio,,,
41.0929723,16.8612585,restaurant,pizza,Pizzeria King 2,,,
41.1289063,16.5424822,restaurant,pizza,I tigli,,,
41.1289605,16.5425745,restaurant,italian,Alighieri Eventi,,,
41.1270343,16.5447410,restaurant,italian,Il Carradore,,,
41.1283785,16.5491185,restaurant,pizza,Marchino,,,
41.1388193,16.8408576,restaurant,pizza,Pizzeria Santa Lucia,,,
41.1387650,16.8407597,restaurant,pizza,Pizzeria Provolina,,,
41.1319707,16.5358312,restaurant,pizza,,,,
41.0983240,16.8513269,restaurant,pizza,RossoPomodoro,,,
41.1004121,16.8567248,restaurant,pizza,Fratelli La Bufala,,,
41.1289537,16.8675569,restaurant,italian,,,,
41.1262554,16.8711301,restaurant,pizza,Mastro Ciccio,,,
41.1289081,16.8721051,restaurant,,Cianna Cianne,,,
41.1365177,16.8457285,restaurant,,,,,
41.1333408,16.5472033,restaurant,pizza,O' Vesuvio,,,
41.0686068,16.8653193,restaurant,pizza,Pizzeria Antoine,,,
41.1098806,16.8607788,restaurant,chinese,Ristorante Cinese,,,
41.1828970,16.5836621,restaurant,pizza,Chalet del Sole,,,
41.0928718,16.8595155,restaurant,,Giampà,,,
41.0594470,16.8062577,restaurant,,Ristorante VIII Talento,,,
41.0948659,16.8779489,restaurant,italian,La Vecchia Data,,,
41.0893069,16.9939123,restaurant,fish,Ristorante,,,
41.0996563,16.8843806,restaurant,,Cortigiano,,,
41.0986547,16.8712473,restaurant,pizza,Al Gusto Antico,,,
41.0423405,16.8862028,restaurant,regional,Birrosteria,,,
41.1063512,16.9162095,restaurant,,Nico,,,
41.1151948,16.8916941,restaurant,,,,,
40.9980932,17.2152045,restaurant,italian,La tana marina,,,
41.0946760,16.8606780,restaurant,pizza,Pizzeria Aladino,,,
41.2029320,16.5981739,restaurant,pizza,Al Capriccio,,,
41.2048271,16.5977488,restaurant,italian,Vetusta Nursia,,,
40.9527173,17.3044106,restaurant,italian,Osteria Perricci,"Mo-Su 12:00-14:30,20:00-23:30; We off",,
41.1956672,16.5979219,restaurant,pizza,Vecchia Roma,,,
41.1357011,16.8294533,restaurant,pizza,Pizzeria Il Covo,,,
41.1999805,16.6007372,restaurant,turkish,Marhaba,,,
41.1880876,16.6718536,restaurant,regional,Pugliaccio,,,
41.1021699,16.8595289,restaurant,pizza,Pizzeria Nottedì,,,
40.9894113,16.8308438,restaurant,regional,Terre di Sizzaro,,,
40.9607039,17.1735071,restaurant,,Ristorante pizzeria Il Girasole,,,
41.0219253,16.8135499,restaurant,italian,La Leggenda del Tesoro,,,
41.2036814,16.6018434,restaurant,,La Baguetterie Molfetta,,,
41.1341791,16.8258482,restaurant,pizza;italian;regional;fish;meat;friture,Ristopizza La Sosdisfazione,"Mo-Su 13:30-15:30,20:00-23:59",,
41.1935391,16.6279413,restaurant,,Rosa dei Venti,,,
41.0563958,16.6498223,restaurant,italian,Masseria Vero,,,
41.0751163,16.9324703,restaurant,pizza,,,,
40.9405841,17.3154927,restaurant,italian,Ristorante ricevimenti Copacabana,,,
40.9942643,17.2209148,restaurant,italian,Antica Trattoria Comes,"Mo-Su 12:30-15:00,19:30-24:00; We off",,
41.1917106,16.5778123,restaurant,,Corte degli Aranci,,,
41.1623806,16.7595603,restaurant,italian,La brace nel vicolo,,,
41.1093950,16.8741658,restaurant,chinese,Red Sky Wok,,,
40.9442461,17.3060558,restaurant,pizza,Gioia di Pizza - Pizzeria,,,
41.0502621,16.5622969,restaurant,pizza,Al-Gino-87,,,
41.1634777,16.7526910,restaurant,pizza,La locanda del Corsaro Nero,,,
41.2028640,16.5930498,restaurant,,Pizzeria Cip e Ciop,,,
41.1935202,16.6266973,restaurant,,Villa Astoria,,,
41.2043340,16.6005280,restaurant,pizza,Pizzeria Garibaldi,,,
41.2044569,16.6001819,restaurant,pizza,Pizzeria Desea...de,,,
41.2030710,16.6002059,restaurant,pizza,Pizzeria Happy Dinner,,,
41.1300751,16.5497204,restaurant,pizza,Il Muretto,,,
41.1105381,16.8760883,restaurant,regional,Garden,,,
41.2046164,16.5981856,restaurant,regional,la tavernetta,,,
41.1363961,16.8370910,restaurant,italian,La Caravella,,,
41.1356999,16.8373158,restaurant,italian,Tambone,,,
41.1141261,16.8756861,restaurant,,Pizzeria Lombardi,,,
41.1163320,16.8739060,restaurant,,Ristorante Georgia,,,
41.1300210,16.5484725,restaurant,grill,Steak house,,,
41.1887980,16.6742493,restaurant,italian,La Creperia,,,
41.1883938,16.6699330,restaurant,,Lonada,,,
41.1876760,16.6730680,restaurant,,,,,
41.1883088,16.6744071,restaurant,,,,,
41.1885715,16.6735892,restaurant,,,,,
41.1885999,16.6732467,restaurant,,,,,
41.1892462,16.6729631,restaurant,,,,,
41.1890388,16.6737846,restaurant,,,,,
41.0041367,16.8674175,restaurant,pizza,Pizzeria Castello,,,
41.0039813,16.8772928,restaurant,,I Fuochi,,,
41.0038598,16.8765938,restaurant,pizza,Pizzeria,,,
41.1268731,16.8695110,restaurant,regional,Osteria Alle Travi,,,
41.2008359,16.5977475,restaurant,italian,Pizzeria Happy Day's,,,
41.1985083,16.5969844,restaurant,pizza,Vecchio Gazebo,,,
41.0574405,16.7094114,restaurant,,Sala delle Rose,,,
40.9531182,17.3027751,restaurant,italian,Trattoria Pierino l'inglese,,,
41.1252047,16.8649653,restaurant,regional,Ristorante Opera,,,
41.1062072,16.6637035,restaurant,,Borgo Bontà,,,
40.9986936,16.8673676,restaurant,pizza,Pizzeria Lo Chef,,,
40.9532329,17.2956936,restaurant,,Spaghetti d'Italia,,,
40.9529311,17.2962193,restaurant,,Il vizio pub,,,
41.1154709,16.8741535,restaurant,,Pizzeria il Sottano,,,
41.0470417,16.9214309,restaurant,pizza,iPizza,,,
41.0003002,16.7980349,restaurant,pizza,Al Castello,,,
41.0003553,16.8005914,restaurant,pizza,History Café,,,
41.0005799,16.8004449,restaurant,pizza,Il Nascondiglio,,,
40.9986520,16.7995456,restaurant,pizza,Pizzeria La Gigante,,,
40.9992707,16.7927783,restaurant,pizza,Pizzeria The King,,,
41.0003908,16.7898288,restaurant,italian;pizza,Ristorante Pizzeria Albatros,,,
40.9966583,16.8018051,restaurant,italian;pizza,Ristorante Pizzeria Piccadilly,,,
41.0051664,16.8014725,restaurant,italian;pizza,Ristorante Pizzeria Spada Aurora,,,
41.0004166,16.7993093,restaurant,pizza,I Cinque Monelli,,,
41.1883047,16.6698189,restaurant,pizza,Rocket,,,
41.0966773,16.8410274,restaurant,,Terranobile,,,
41.1103008,16.8800653,restaurant,,,,,
40.9961797,17.2226019,restaurant,,Zanzipizza sea food,,,
40.9962738,17.2199126,restaurant,,Mint,,,
40.9988135,17.2108482,restaurant,,Plenilunio Punta Paradiso Beach Bar,"Mo-Su 00:00-02:00,19:00-24:00",,
41.1076172,16.8757605,restaurant,,Pizzeria Blu Fantasy,,,
41.2293585,16.5369552,restaurant,,Brezza Tra Gli Ulivi,,,
41.1039964,16.8760209,restaurant,,,,,
41.1035556,16.8827419,restaurant,,,,,
41.1259877,16.8728927,restaurant,,,,,
41.1283293,16.8746254,restaurant,,,,,
41.1170619,16.8782161,restaurant,pizza,Pizzeria La Tana,,,
41.1112382,16.8766600,restaurant,pizza,L'incontro,,,
41.1187968,16.8848396,restaurant,pizza,Ghiribizzo,,,
41.1150786,16.8730672,restaurant,asian,Ramen a mano - Ristorante millegusti,,,
41.1124911,16.8712771,restaurant,pizza,Il Chiodo Fisso,,,
41.1266639,16.8713957,restaurant,italian;local;seafood,Vini e Cucina,,,
41.0029882,16.9866119,restaurant,,,,,
41.0310787,16.5383076,restaurant,,Park Hotel Elizabeth,,,
40.9868840,16.6170210,restaurant,,Agriturismo Pilapalucci,,,
41.1895875,16.6679672,restaurant,,,,,
41.1925198,16.6342005,restaurant,,L'Adriatico,,,
41.1937057,16.6173156,restaurant,,La Pineta,,,
41.1924125,16.6334585,restaurant,,La Playa del Sol,,,
41.0693437,16.9316912,restaurant,pizza,,,,
41.1256562,16.8660636,restaurant,pizza,Frà Bo,,,
41.1164426,16.8773939,restaurant,pizza,Donato,,,
41.1148293,16.8683660,restaurant,pizza,"Pizzeria ""La Chicca""",,,
41.1060696,16.6900124,restaurant,regional,Il Plancheto,,,
41.1061900,16.6901677,restaurant,pizza,Il Patriarca,,,
41.1527768,16.7691728,restaurant,pizza,Kiss,,,
41.1602055,16.7669388,restaurant,,Al Paradise,,,
41.1064016,16.9229249,restaurant,italian,Pizzeria GM,,,
41.1265475,16.8755171,restaurant,,Barion,,,
41.1170585,16.8924923,restaurant,pizza,Pizzeria sotto le stelle,,,
41.1230223,16.8733530,restaurant,pizza,giampà,,,
40.9953242,17.2182666,restaurant,pizza,Al Buco Preferito,,yes,yes
40.9970655,17.2172048,restaurant,seafood,Meraviglioso,,,
41.1044281,16.8790301,restaurant,,,,,
41.1295490,16.8681716,restaurant,mediterranean,Mediterranea,,,
40.9967489,17.2194108,restaurant,,La Balconata Follie & Drinks,,,
41.1287403,16.8718049,restaurant,,La Uascezze,,,
40.9969251,17.2162656,restaurant,,Braceria dello Sport,,,
41.1231467,16.8638015,restaurant,,Terranima,,,
40.9933314,17.2199353,restaurant,,Leo's Braceria,,,
41.1253314,16.8706064,restaurant,,Piccinni 28,"12:30-15:30,19:30-01:30",,
41.1282273,16.8711402,restaurant,,Osteria del Borgo Antico,,,
41.1292997,16.8696161,restaurant,,Le Arpie,,,
41.1268137,16.8665488,restaurant,,Shodai,,,
41.1905491,16.5350667,restaurant,,agriturismo la ferrovia,,,
41.1361898,16.8260646,restaurant,pizza,Pizzeria Al Ponte,,,
41.1388134,16.8187578,restaurant,pizza,Pizzeria Rosa dei venti,,,
41.1364752,16.8261677,restaurant,pizza,Pizzeria Da Cosimo,,,
41.0421316,16.8527359,restaurant,pizza,Variety,18:00-23:30,,
41.0620292,17.0919743,restaurant,friture;grill;fish;seafood;mediterranean;local;barbecue;diner,Ministero della Brace,,,
41.0742444,16.8565131,restaurant,"Antipasti,_primi,_secondi,_pizza",Pizza E Core,19:30-01:00,,
41.1358099,16.8334801,restaurant,,San Francesco Alla Rena,,,
41.1102783,16.8693772,restaurant,,l'Albero Che,,,
41.1064423,16.8530757,restaurant,"ricercata,_pizzeria_e_rosticceria",Giotto- chef all'opera,"12:30-15:00,18:30-23:00",,
41.1067465,16.8532707,restaurant,pizza,Le Véronique Poggiofranco,"12:30-15:00,19:30-01:30",,
41.1282238,16.8731940,restaurant,greek,Gyrosteria Iannis,"12:00-16:30,18:30-00:30",,
41.1281819,16.8728547,restaurant,regional;pizza,Antico Molo,18:00-02:00,,
41.1268445,16.8642539,restaurant,regional;pizza,Da Cla (I sapori di casa nostra),"12:30-15:00,19:30-20:30",,
41.0211675,16.9288036,restaurant,pizza,L'antico Arco,,,
41.0425324,16.8517048,restaurant,pizza,Pizzeria La Mammola,Mo-Fr 18:30-22:30; Sa 18:30-23:30,,
41.1382070,16.8407825,restaurant,,L'alchimia dei sapori,,,
41.1390523,16.8418860,restaurant,,Pizzeria Santa Lucia,,,
41.1366205,16.8448794,restaurant,,Pizzeria Provoletta conte,,,
41.1389325,16.8412431,restaurant,,pizzeria,,,
40.9534047,17.3019066,restaurant,,Il Guazzetto,,,
40.9958168,17.2173801,restaurant,seafood;regional;pizza,La Terrazza,,,
41.1185183,16.8871657,restaurant,pizza,Fantasy Pizza,,,
41.0403521,16.8266996,restaurant,slow_food,La Campagnola,,,
41.1281945,16.8724410,restaurant,italian_pizza,Pizzeria Buenallegre,,,
41.0036765,16.9101241,restaurant,,Villa casale,,,
41.1158469,16.8662724,restaurant,pizza,Pizzeria Baraonda,Tu-Su 19:30-00:00,,
41.0930053,16.9861221,restaurant,,Crudi Crudi,,,
41.0014257,16.9122583,restaurant,,Villa casale,,,
41.2351265,16.5080002,restaurant,,La Taverna del Duca,,,
41.1287292,16.5347038,restaurant,,Caravan serraglio,,,
41.1290131,16.5493082,restaurant,,caseificio,,,
40.9536271,17.3051616,restaurant,,The King,Mo-Su 19:00-00:00,,
41.1233196,16.8760120,restaurant,,Premiata Norcineria,,,
41.1233610,16.8765588,restaurant,,La tana dei lupi,,,
41.1263047,16.8715450,restaurant,,Ristorante Biancofiore,,,
41.1250677,16.8637324,restaurant,pizza;pasta;italian;coffee_shop,Bari - Napoli,"Mo-Fr 12:30-15:30,19:30-23:30; Sa,Su 19:30-23:30",yes,yes
41.1252687,16.8661035,restaurant,,Sottosopra,,,
41.1265891,16.8708849,restaurant,,La Tana Del Polpo,,,
40.9532211,17.3034371,restaurant,,La Dolce Vita,,,
41.1515511,16.7826475,restaurant,,White Garden Ricevimenti,,,
41.1265496,16.8691004,restaurant,,Pizzeria da Giancarlo,,,
41.1197852,16.8702634,restaurant,,,,,
41.1213694,16.8726000,restaurant,,,,,
41.2338449,16.5165873,restaurant,fish,El Mar,,,
41.1212116,16.8655015,restaurant,,La Pesciera,,,
41.1206651,16.8655625,restaurant,,Pizzeria da Gianni,,,
41.1296335,16.5536204,restaurant,pizza,,,,
41.1275726,16.8680008,restaurant,pizza,Pizzeria Di Cosimo,,,
41.1267144,16.8711368,restaurant,,Restaurant Sopravento,,,
41.1275690,16.8719636,restaurant,,Matiti Al Dente Spaghetteria,,,
41.1255437,16.8687121,restaurant,peruvian,Rú,,,
41.1273787,16.8664536,restaurant,italian_pizza;pasta,Restaurant Frederico II,,,
41.0034259,16.8676014,restaurant,pizza,La Piazzetta del Gusto,,,
41.0746152,16.8698324,restaurant,,La Taberna,,,
41.0725033,16.8699791,restaurant,pizza,Pizzeria,,,
40.9961306,17.2171694,restaurant,,Puro,Mo-Su 10:00-22:00,,
41.1023107,16.8828345,restaurant,pizza,Pizzeria Il Bugigattolo,,,
41.1075671,16.6907376,restaurant,regional,Vinicio 2.0,,,
41.1123519,16.8685754,restaurant,steak_house,Braceria Signorile,,,
41.1513778,16.7628310,restaurant,pizza,,,,
41.1592788,16.7794171,restaurant,pizza;italian,Casablanca,,,
41.1601298,16.7635506,restaurant,pizza,,,,
41.1361425,16.8350468,restaurant,,I Tre Sapori,,,
41.1213625,16.8677978,restaurant,,Stammibene,,,
41.2370218,16.5091594,restaurant,pizza,A Casa Mia,We-Mo 19:00-00:00,,
41.1212372,16.8659907,restaurant,italian_pizza;italian,Taverna Caprese,"Mo-Sa 12:00-15:30,19:30-23:30",,
41.2377167,16.5108595,restaurant,,Pizzeria Antipasteria L'Altro Buco,,,
41.1336136,16.7788089,restaurant,pizza,Ristopizza dei Principi,,,
41.1222894,16.8757595,restaurant,,Pizzeria Enzo e Ciro,Mo-Su 19:15-02:00,,
41.1270850,16.8594800,restaurant,,Pizzeria delle Meraviglie,,,
41.1249360,16.8597060,restaurant,,Pizzeria da Gaetano,,,
41.1275080,16.8638842,restaurant,,Pizzeria da Lino,,,
41.1262867,16.8708524,restaurant,,In vino veritas,,,
41.1262956,16.8703133,restaurant,,Boccaccio,,,
41.1262467,16.8699021,restaurant,,Verve,,,
41.1243182,16.8647148,restaurant,,Ristorante Radici Osteria,,,
41.1193673,16.8725668,restaurant,asian,Asian Foods,,,
41.1195787,16.8725444,restaurant,asian,Ochun,,,
41.1188608,16.8729074,restaurant,,Pizzeria Continental,,,
41.0211182,16.9982777,restaurant,,Le Beef,,,
41.1233133,16.8762811,restaurant,italian,Ristorante Pizzeria Taverna Verde,Mo-Su 12:00-23:45,,
41.0989339,16.8511925,restaurant,,Piu' Komodo,,,
41.1290704,16.5428311,restaurant,italian,Sviniamo,,,
41.1242052,16.8665406,restaurant,,Il Sale,,,
41.1283496,16.8718387,restaurant,italian;regional,Ristorante La Cecchina,,,
41.1318771,16.8684913,restaurant,fish;italian,Hostaria al gambero,,,
40.9527141,17.3022531,restaurant,fish,Damare,"Tu-Su 12:00-15:30, 19:30-00:00",,
41.1169527,16.8737820,restaurant,pizza;regional,Taverna del Merlino,,,
41.1214585,16.8700796,restaurant,,Frulez,,,
41.1222987,16.8619933,restaurant,,Chan,"Tu-Su 12:00-15:00, 19:00-00:00",,
41.1268569,16.8685329,restaurant,seafood,Osteria delle Travi di Bari,,,
40.9955144,17.2188844,restaurant,italian,Uccio Fish food,,,
40.9969134,17.2168623,restaurant,italian,Chichibio,Mo-Su 10:00-22:00,,
40.9968190,17.2176724,restaurant,italian,Il bastione,,,
40.9967782,17.2161917,restaurant,,Trattoria dal Monaco,,,
40.9957571,17.2186722,restaurant,,Osteria dei mulini,,,
40.9945630,17.2193181,restaurant,,Cuccundeo,,,
40.9947341,17.2193738,restaurant,,Pescaria,,,
40.9960433,17.2189457,restaurant,italian,Trattoria Pizzeria neuro,,,
41.2387097,16.5097388,restaurant,,Pizzeria Da Gino,,,
40.9527670,17.3030846,restaurant,,20m2,,,
41.0761338,16.8702093,restaurant,,,,,
41.0756241,16.8702144,restaurant,,,,,
41.1242691,16.8637043,restaurant,pizza;regional;seafood;meat;coffee,Pucciaria,Mo-Su 09:00-23:00,,
41.1641739,16.7527954,restaurant,pizza;regional;seafood;meat,PUCCE DI PUCCIARIA,Mo-Su 07:00-22:00,,
40.9538559,17.3053924,restaurant,,Tamborr Legend Bar & Restaurant,,,
41.1250039,16.8659610,restaurant,,El Pedro,,,
40.9529970,17.3033261,restaurant,,Vini & Panini,,,
41.0625993,17.0927305,restaurant,,La Cantina dei Briganti,,,
40.9535176,17.3003099,restaurant,chinese,Pechino,,,
41.1277576,16.8714700,restaurant,,L'Osteria del Borgo Antico,"Th-Tu 12:00-15:30, 19:00-01:00",,
40.9534001,17.3016216,restaurant,italian;pizza,Ohama,,,
41.0038758,16.8782605,restaurant,,Le Plus Bon,,,
41.1375270,16.8369357,restaurant,italian,Eataly Bari,Mo-Fr-Su 10:00-23:00; Sa 10:00-00:00,,
40.9522576,17.2937269,restaurant,pizza,El Dorado Cafè,"Su 07:00-13:00; Mo 06:00-21:00; Tu 06:00-14:00; We-Fr 0600:24:00; Sa 06:30-13:00, 17:00-24:00",,
40.9536776,17.2960047,restaurant,pizza,Boombeer Pizzeria di Saverio Mandriota,Mo-Su 19:00-23:00,,
41.1073687,16.6913768,restaurant,,Fico,,,
41.1068836,16.6909601,restaurant,,,,,
41.1982496,16.5981933,restaurant,,Tournee du Chat Noir,,,
41.0603115,17.0936230,restaurant,"seafood,italian",,,,
41.1307904,16.5490596,restaurant,burger;italian,Primi Di Tutto,"Tu-Su 08:30-15:00,18:00-21:00",,
41.1902514,16.6641150,restaurant,pizza;italian,Il Pomodoro Beach,,,
41.1888978,16.6732420,restaurant,regional,Hostaria San Domenico,,,
41.1883096,16.6656414,restaurant,pizza;regional,Pizzeria L'oasi,,,
41.1661205,16.7481706,restaurant,pasta;pizza,La tana dell’ artista,,,
41.1030015,16.9339013,restaurant,,Pizzeria Da Nico,,,
40.9688069,17.1166134,restaurant,,Terrasse Belvedere,,,
41.1263654,16.8691715,restaurant,,La Pazzeria,,,
41.1279628,16.8719628,restaurant,mediterranean;italian,Black & White,,,
41.1288617,16.8720965,restaurant,,Le Nichie,,,
41.1194248,16.8717447,restaurant,mediterranean;italian,Peppo,,,
41.1873506,16.6747221,restaurant,,Osteria Scvnazz Giovinazzo,,,
41.1215364,16.8684749,restaurant,italian;regional;coffee_shop;wine,Mamapulia,,,
41.0671436,16.9267879,restaurant,,Gamberosso triggiano,,,
40.9522333,17.2986037,restaurant,,O Capitano restaurant,,,
40.9510265,17.2984248,restaurant,,Primo pasta bar,,,
41.1265417,16.8692255,restaurant,,La Risto Pizza Dregher,,,
41.1207142,16.8784084,restaurant,,La Dolce Vita,"Tu, Th 12:00-15:00, 19:30-01:30; We, Fr-Sa 19:30-01:30; Su 19:30-00:00",,
41.1236366,16.8744728,restaurant,,Mezcla,"12:30-15:00,19:00-01:00",,
41.0865975,16.7867525,restaurant,,The Butcher - beccheria l'Erede,,,
41.1235256,16.8757440,restaurant,japanese,Xuan,,,
41.1230865,16.8731056,restaurant,pizza;italian,Tiella,,,
41.1186605,16.8677135,restaurant,japanese,MODE,,,
41.1367991,16.8380273,restaurant,,Birrificio Bari,,,
41.0762679,16.8702939,restaurant,pizza,,,,
41.0729516,16.8707031,restaurant,pizza,,,,
40.9550269,16.9178954,restaurant,,,,,
41.2049638,16.6005216,restaurant,,XO,,,
41.0976221,16.9602178,restaurant,,Baia bistrot,,,
41.1257431,16.8680666,restaurant,,,,,
41.1029094,16.8840032,restaurant,,,,,
41.1162755,16.8685229,restaurant,,Ristorante Farhà,,,
41.0333941,16.8757285,restaurant,,Braceria da Mimmo,,,
40.9594708,17.2904076,restaurant,,Via col vento,,,
41.1093864,16.6888978,restaurant,japanese,matsu,,,
41.0724874,16.8699581,restaurant,pizza,,,,
41.0760654,16.8646828,restaurant,pizza,,,,
40.9843977,17.1076678,restaurant,,Masseria Petrullo,,,
40.9546969,16.9213155,restaurant,italian_pizza,,,,
40.9532709,17.3062233,restaurant,italian,Salsamenteria,,,
41.0639058,17.0869884,restaurant,italian,Ristorante Al Bel Paese,,,
41.0628608,17.0892930,restaurant,italian,Antichità,,,
41.0628708,17.0921890,restaurant,italian;fish,Il Rifugio del Pescatore,,,
41.0609679,17.0913329,restaurant,pizza,L'archetto,,,
41.0627319,17.0920332,restaurant,fried_food,Streetfood 67,,,
41.0610345,17.0913592,restaurant,,Mangiafuoco Gourmet,,,
40.9503784,17.3035603,restaurant,,Filo d'olio,,,
41.1279796,16.5571824,restaurant,pizza,Il gioco dei sensi,,,
40.9522990,17.3055479,restaurant,seafood,Piazza Palmieri Ristorante,,,
40.9527073,17.3021225,restaurant,,Avamposto 11,,,
41.1059644,16.6898862,restaurant,mediterranean,Artu' X Tu,,,
40.9528462,17.3032405,restaurant,,Garibaldi Steakhouse,,,
41.1587106,16.7495315,restaurant,regional,Artemisia,,,
41.1143306,16.8688785,restaurant,italian,Paoletti,,,
41.1064219,16.6890660,restaurant,italian,Lilo',,,
41.1102088,16.6838212,restaurant,pizza,Il Grifone,,,
41.1676731,16.7427177,restaurant,,L'Incanto,,,
41.1069908,16.8532682,restaurant,,Tabula Rasa,,,
41.1112186,16.9217257,restaurant,,Assudest,,,
41.1106985,16.8742757,restaurant,,DaiKi Japanese Restaurant,,,
41.1482550,16.7847733,restaurant,,Jo&Le,,,
40.9477089,17.3072970,restaurant,,Porto Rosso,,,
40.9960331,17.2191455,restaurant,pizza,Pizzeria Osteria Bella 'Mbriana,"Jan-Jun Mo-Su 00:00-03:00,12:00-16:00,19:30-24:00; Jul-Aug Mo-Su 00:00-03:00,19:30-24:00; Sep-Dec Mo-Su 00:00-03:00,12:00-16:00,19:30-24:00",,
41.1086262,16.8761258,restaurant,,Est!,,,
41.1233601,16.8681209,restaurant,,Il Canto Dei Bischeri,,,
41.1230977,16.8760309,restaurant,,PerBacco,,,
41.0966800,16.8322772,restaurant,,Vesuvya,,,
41.0959014,16.7932216,restaurant,,Hotel Giardino,,,
41.1278500,16.8714107,restaurant,,L'Osteria dell Borgo Antico,,,
41.1896494,16.6741589,restaurant,,,,,
41.1896020,16.6748428,restaurant,regional,OPA OPA on the Beach,,,
41.1085836,16.6923799,restaurant,pizza,,,,
41.1944128,16.6381234,restaurant,pizza,Torre Gavetone,,,
40.9659138,16.5765824,restaurant,pizza,Bar Pizzeria del Parco,,,
41.1166009,16.8659026,restaurant,,La svolta,,,
41.1280209,16.8722504,restaurant,,canarute,,,
40.9655761,16.5762147,restaurant,pizza;fast_food,Zona Viva,19:00-02:00,,
40.9649239,16.5757214,restaurant,meat,Braceria Caputi,20:00-00:00,,
40.9543590,16.5492254,restaurant,regional,,,,
41.1191554,16.8834758,restaurant,italian,Ristopizza Al Cantuccio2 da Ivan,,,
41.1235574,16.8750988,restaurant,regional;italian;mediterranean,Al Sorso Preferito,,,
41.1944416,16.6261389,restaurant,italian;mediterranean;regional;pasta,Ricomincio da 3,,,
41.1066949,16.6905909,restaurant,pizza,Ragno Verde,,,
41.0854320,16.9979019,restaurant,fish,Meltemi,,,
40.9499708,17.3028065,restaurant,pizza,Ai Portici,,yes,yes
40.9532367,17.3062346,restaurant,,Carlo Quinto,,,
40.9522212,17.3032537,restaurant,italian,Munz Munz,"Mo,We-Fr 18:00-23:00; Tu off; Sa 08:30-15:00,18:00-23:30; Su 08:30-15:00,18:00-23:00",only,yes
41.1260557,16.8662784,restaurant,pizza,Mozzarella e basilico,,,
41.1169556,16.8710463,restaurant,chinese;japanese,Umi Sushi,"Mo-Sa 12:00-15:00,19:00-00:00; Su 12:00-15:00",yes,yes
41.1896619,16.6706166,restaurant,pizza,Il Portolano,,,
41.1111206,16.8907781,restaurant,pizza;italian,Pizzeria Ristorante Pierpà,"Tu-Th 12:30-15:00,19:00-00:00; Fr,Sa 12:30-15:00,19:00-00:30; Su 12:30-15:00,19:00-00:00",yes,yes
41.1254144,16.8680844,restaurant,crepes,civico 16,,,
41.1637165,16.7489942,restaurant,pizza,Artepizza,,,
40.9526401,17.3031164,restaurant,pinsa;italian_pizza;italian;wine;beer;pasta,PINSOTTI pinsa & bacaro,Mo-Su 18:00-24:00,,
41.1347646,16.7643229,restaurant,,N-dèrre a la lanze,,,
41.0382106,16.9848823,restaurant,pizza;pugliese;italian_pizza;regional;italian,Puglia In Pizza,Mo-Su 19:00-00:00,yes,
41.1128153,16.8631375,restaurant,,Trattoria Guilio Cesare,,,
41.0784761,16.7846242,restaurant,pizza,Pizzeria L'Amicizia,,,
41.0759926,16.7860277,restaurant,pizza,Pizzeria Papeete,,,
41.1257070,16.8665978,restaurant,italian,Fabulà,"Tu-Sa 12:30-15:30,19:30-23:30; Su 12:30-15:30,19:30-24:00",,
41.1223590,16.8659906,restaurant,japanese,Nagoya,24/7,,
40.9503051,17.3061809,restaurant,,MezzoPieno Cafè Restaurant,,,
41.1070411,16.8611385,restaurant,pizza,Al Buco Preferito,Tu-Su 19:00-24:00,,
41.2384193,16.5098575,restaurant,,Osteria del Seminario,,,
40.9525338,17.3014863,restaurant,,Gasperini,,,
40.9528519,17.3031164,restaurant,,Osteria Gaia,,,
40.9530107,17.3037277,restaurant,,Gustavo Focaccia,,,
