@lat,@lon,amenity,cuisine,name,opening_hours,diet:vegetarian,diet:vegan
47.1855646,-1.4420573,restaurant,,Le Vigneron,,,
47.2408259,-1.5299153,restaurant,crepe,Le Comptoir De Jules,,,
47.2155159,-1.5537310,restaurant,regional,Crêperie Sainte-Croix,"Mo 12:00-14:00,17:30-22:00; Tu 11:30-23:00; We,Th 11:00-23:00; Fr,Sa 11:00-00:00",,
47.2155274,-1.5540486,restaurant,crepe;salad,La Cantine du Curé,,,
47.2156525,-1.5531449,restaurant,japanese,Au Soleil Levant,"12:00-14:00,18:00-22:00; We off",,
47.2156313,-1.5532312,restaurant,japanese,Le Tokyo,"Mo-Su 12:00-14:00,19:00-23:00",,
47.2156137,-1.5533042,restaurant,regional,Après la Pluie,,,
47.2154723,-1.5534274,restaurant,regional,"Le loup, le renard et la galette",Mo-Su 12:00-22:30,,
47.2216555,-1.5476158,restaurant,,Barouf,,,
47.2151411,-1.5531107,restaurant,mediterranean,Chez Rémy,"Tu-Su 12:00-14:00,19:00-23:00",,
47.2156598,-1.5527325,restaurant,fries,Pomme Bûche,Tu-Th 19:00-00:00; Fr-Sa 19:00-01:00,,
47.2156386,-1.5528079,restaurant,pizza,La Spiga,,,
47.2156176,-1.5528782,restaurant,japanese,The red & luna,,,
47.2156900,-1.5530088,restaurant,french,La Reine Margot,"Tu-Fr 12:00-14:00,19:00-22:00; Sa 12:00-14:00,19:00-23:00",,
47.2152744,-1.5533013,restaurant,regional,Au Vieux Quimper,,,
47.2151312,-1.5533027,restaurant,regional,Fleur de Sel,"Tu-Fr 12:00-14:00,19:00-22:00; Sa 12:00-14:30,19:00-23:00; Su 12:00-14:30,19:00-22:00",,
47.2150876,-1.5525801,restaurant,regional,La Crêperie Jaune,,,
47.2172918,-1.5524959,restaurant,french,La Cuillère en Coin,Mo-Fr 12:00-15:00,,
47.2145886,-1.5579516,restaurant,french,La Taverne Royale,"Mo-Su 00:00-02:00,11:00-24:00",,
47.2167002,-1.5467755,restaurant,seafood,La Loco,"12:00-15:00,19:00-23:00; Fr,Sa 12:00-15:00,19:00-24:00",yes,yes
47.2009018,-1.5734025,restaurant,asian,La Grande muraille,"Mo-Su 12:00-15:00,19:00-22:30",,
47.2136180,-1.5534618,restaurant,french,La Vache Nantaise,"Su-Th 12:00-14:30,19:00-22:30; Fr,Sa 12:00-14:30,19:00-23:00",,
47.2354192,-1.6518185,restaurant,,Le Bodegon,,,
47.2356848,-1.6528397,restaurant,regional,Chez Fernand,,,
47.2966130,-1.7498830,restaurant,,La Ferme,,,
47.2109342,-1.7278455,restaurant,,Francois II,,,
47.2965578,-1.5302919,restaurant,,Auberge du Vieux gachet,,,
47.2147524,-1.5548521,restaurant,french,Chacha,"We-Sa 12:00-15:30,19:00-23:30",,
47.2148919,-1.5554715,restaurant,italian;italian_pizza;pizza,Mia Nonna - Le Clan des Mamma,"Mo-Th 12:00-14:00,19:00-22:00;Fr,Sa 12:00-14:00,19:00-22:30;Su 12:00-14:00",yes,
47.2149265,-1.5553566,restaurant,french,Les Fils à Maman,"Tu-Fr 12:00-14:00, Mo-We 19:30-22:00, Th 19:30-22:30, Fr,Sa 19:30-23:00; Sa 12:00-14:30; Su 12:00-15:00",,
47.2149559,-1.5552494,restaurant,indian,Shaan Tandoori,"Tu-Fr 12:00-13:45, Th 19:30-22:15, Fr,Sa 19:30-22:30, Mo-We 19:30-22:00",,
47.1908444,-1.4916280,restaurant,french,Flunch,Mo-Fr 11:30-21:30; Sa 11:30-22:00; Su 18:30-21:30,,
47.1905865,-1.4923284,restaurant,coffee_shop,Le Concorde,,,
47.1880127,-1.4699600,restaurant,crepe;pancake;savory_pancakes,Crêperie Fleur de Sarrasin,"Mo-Th 11:30-14:30, 18:30-22:00; Fr-Sa 11:30-14:30, 18:30-22:30; Su 12:00-14:30, 18:30-21:30",,
47.1875738,-1.4692583,restaurant,,Crescendo Cafétéria,,,
47.2134959,-1.5533734,restaurant,french;regional;crepe,BK,"Tu,We,Th,Fr,Sa 19:00-1:30",,
47.2150030,-1.5531827,restaurant,french,bistro Régent,"Mo-We,Su 11:45-14:30,18:45-22:45; Th 11:45-14:30,18:45-23:00; Fr-Sa 11:45-14:30,18:45-23:15",,
47.2142289,-1.5486683,restaurant,pizza,Neo politan,"Mo 12:00-14:00; Tu-Th 12:00-14:00,19:00-22:00; Fr 12:00-14:00,19:00-22:30; Sa 19:00-22:30",,
47.2002928,-1.5889850,restaurant,italian;pizza,Bella Vita,"Mo off; Tu 11:00-14:00; We-Fr 11:00-14:00, 18:00-21:30; Sa-Su 18:00-21:30",,
47.2071714,-1.5891230,restaurant,french,à boire & à manger,"Mo-We 12:00-14:00; Th,Fr 12:00-14:00,19:00-22:00",,
47.2207018,-1.5550616,restaurant,,L'Océanide,"Tu-Sa 12:00-14:00,19:00-21:30",no,
47.2155348,-1.5538359,restaurant,seafood,Aux moules du Bouffay,,,
47.2258543,-1.5475317,restaurant,,Restaurant universitaire,,,
47.2143716,-1.5720276,restaurant,crepe,Le Bocage,"Tu-Sa 12:00-14:00,19:00-21:30",,
47.2121335,-1.5727894,restaurant,italian,Mama Catinat,"Mo,Tu,Th 12:00-14:00; We,Fr 12:00-14:00,19:30-21:30",yes,
47.2107572,-1.7278074,restaurant,,Osmoz,,,
47.1682107,-1.4801524,restaurant,,Le Monte Cristo,,,
47.1770975,-1.5864730,restaurant,,,,,
47.1958123,-1.5427082,restaurant,,Les Pyramides,,,
47.2158219,-1.5551613,restaurant,potato,Amour de Pomme de terre,"12:00-14:30,19:00-22:00; Fr,Sa 12:00-14:30,19:00-23:00",,
47.2136277,-1.5545950,restaurant,international,Le Paradis du Fruit,Mo-Sa 11:30-23:00,yes,yes
47.2201544,-1.5492427,restaurant,italian,Le Rital,"Mo-Th 12:00-14:00,19:15-23:00; Fr 12:00-14:00,19:15-23:45; Sa 19:15-23:45",,
47.2202774,-1.5488838,restaurant,american,Josephine Café,"Tu-Fr 12:00-14:30, 19:00-21:00; Sa 12:00-16:30",,
47.2208630,-1.5484730,restaurant,asian,Kimchhy,,,
47.2208248,-1.5485148,restaurant,burger,Oh Pti Plaisir,"Mo-Th 11:00-23:00; Sa 00:01-01:30, 11:00-00:00; Fr 11:00-00:00; Su 00:01-01:30, 11:00-22:00",,
47.2127612,-1.5621100,restaurant,,La Cigale,"Mo-Su,PH 07:30-00:30",,
47.2465335,-1.5899717,restaurant,pizza,Le Four a Pizza,,,
47.1628690,-1.6813530,restaurant,kebab,Coyote Cafe,,,
47.2020303,-1.5791231,restaurant,pizza,Pizzeria Bella Italia,"Mo off; Tu-Su 12:00-14:00, 18:30-22:30",,
47.2076616,-1.5585272,restaurant,french,Macoha,"Tu-We 12:00-14:00,19:00-22:00; Th 12:00-14:00,19:00-22:30; Fr-Sa 12:00-14:00,19:00-23:00",yes,
47.2055961,-1.5567015,restaurant,chicken;burger;salad,Picòta rotisserie,"Mo,Tu 12:00-14:00; We-Sa 12:00-14:00,19:00-22:00; Su 19:00-22:00",yes,
47.2084873,-1.5694421,restaurant,asian,Le Saigon,,,
47.2079676,-1.5708791,restaurant,,Le Nez Grillé,,,
47.2082673,-1.5700475,restaurant,,Le Red Butcher,,,
47.2082096,-1.5702078,restaurant,,Au Comptoir D'Asie,,,
47.2083795,-1.5740301,restaurant,,Chez Ta Mère,"Mo 10:00-16:00; Tu,We 10:00-23:00; Th,Fr 10:00-02:00",,
47.2084199,-1.5696298,restaurant,sushi,Kikko Sushi,,,
47.2065428,-1.5564234,restaurant,french,Le Petit François,"Mo,Tu 10:00-20:30; We,Th 10:00-22:00; Fr 10:00-21:00",,
47.2064758,-1.5562842,restaurant,salad;sandwich,L'éléphant rose,,,
47.2091799,-1.5686259,restaurant,french,Machin Machine,"Mo-Sa 10:00-15:00,18:30-02:00",no,
47.2097402,-1.5653394,restaurant,pizza,Pizza Hut,"Mo-Fr 11:30-15:00,18:00-23:00; Sa,Su 11:30-23:00",,
47.2099689,-1.5645691,restaurant,afghan,Le Pamir,,yes,
47.2105915,-1.5628204,restaurant,greek;turkish,Aspendos,,,
47.2118605,-1.5597286,restaurant,vietnamese;chinese,New Vietnam Express,,,
47.2119465,-1.5596460,restaurant,pizza,Lumberjack Pizza,"Mo-Su 00:00-02:00,09:00-24:00",,
47.2158112,-1.5549513,restaurant,,Café Cult',Mo-Sa 12:00-02:00,,
47.2135288,-1.5530081,restaurant,french;local;deli,Papy Mougeot,"Mo 19:30-22:00; Tu-Th 12:00-14:00,19:30-22:00; Fr 12:00-14:00,19:30-22:30; Sa 12:00-14:30,19:30-23:00; Su 12:00-15:00",,
47.2135789,-1.5653901,restaurant,french,Le Grapillon,"Mo-Fr 11:45-13:15, Th-Sa 19:45-20:00",yes,
47.1948709,-1.5830026,restaurant,french,La Civelle,Mo-Sa 09:30-23:00; Apr-Sep: Su 09:30-23:00,,
47.1951811,-1.5811775,restaurant,french,Le Trent',"Mo-Su 12:00-14:00,19:00-22:00; Fr,Sa 12:00-14:00,19:00-22:30",,
47.1951160,-1.5804976,restaurant,italian;pizza,Le Vaporetto,"Mo-Sa 12:00-14:30,19:00-22:30; Su 12:00-15:30",,
47.2059010,-1.5453502,restaurant,french,Les Fonderies,Mo-Fr 08:00-19:00,,
47.2076767,-1.5060733,restaurant,,Bar Brasserie du Marché,Mo-Fr 08:00-21:00,,
47.1918174,-1.5463844,restaurant,pizza,Casanova,"Mo-Sa 12:00-14:00, Fr,Sa 19:00-22:00",,
47.1918541,-1.5461402,restaurant,french,Le Canon à Pat',,,
47.1917267,-1.5464252,restaurant,chinese;asian;japanese,Traiteur Spécialité Asiatique,,,
47.2146220,-1.5591877,restaurant,indian,Taj Mahal,"Mo-Su 11:30-15:30,19:00-23:30",,
47.2140411,-1.5626735,restaurant,pizza;italian,Casa Nostra,"Mo,We 12:00-14:00,19:00-23:00; Th,Fr 12:00-14:00,19:00-23:30; Sa 12:00-14:30,19:00-23:30",,
47.2145597,-1.5591599,restaurant,french,Le Petit Flore,Mo-Sa 12:00-22:30,,
47.2168474,-1.5548065,restaurant,french,Le Reflet,Tu-Fr 12:00-13:15; Th-Sa 19:30-21:15,,
47.2288001,-1.5771682,restaurant,,L'Authentic,,,
47.2139308,-1.5569070,restaurant,steak,L'Entrecôte,"Mo-Su 12:00-14:00,19:00-22:30",,
47.1822678,-1.5858520,restaurant,,bar restaurant du moulin,,,
47.2158334,-1.5520289,restaurant,tapas,L'Appart des Anges,Tu-Sa 18:00+,,
47.2187791,-1.5554362,restaurant,french,Ici,"Tu 12:00-14:00; We-Fr 12:00-14:00,19:30-21:30; Sa 19:30-21:30",,
47.2099885,-1.5018804,restaurant,,CARA,Tu-Su 12:00-14:00; Fr-Sa 19:30-21:30,,
47.2172072,-1.5554742,restaurant,italian,La Pasta,"Mo,Tu,Th,Fr 12:00-14:00, Mo-Fr 20:00-22:00, We 12:00-14:00",,
47.1695743,-1.7214562,restaurant,,Au citron vert,,,
47.2199887,-1.5322322,restaurant,korean,Minari,,,
47.2213084,-1.5477864,restaurant,pizza,Frais et Dispo,,,
47.2365091,-1.5635933,restaurant,,Les Glycines,,,
47.2143026,-1.5436913,restaurant,,Félix,,,
47.2111746,-1.5476715,restaurant,burger;french,La Récré,"Tu-Sa 12:00-14:30,18:30-23:30",yes,
47.2347228,-1.5635350,restaurant,,Les Filles du Marronnier,"Tu,We 11:00-21:30; Th-Sa 11:00-22:30; Su 11:00-15:00",,
47.2093273,-1.5501301,restaurant,,Cantine portugaise,"Mo-Su 11:30-14:30,18:30-21:30",,
47.1899517,-1.5472413,restaurant,brasserie,Bistro du Vélo,,,
47.2092073,-1.5714779,restaurant,kebab,Zac Burger,Mo-Su 10:00-02:00,,
47.1946346,-1.6174490,restaurant,,La Marmite,,,
47.1965447,-1.6182644,restaurant,,,,,
47.1467296,-1.5295799,restaurant,regional,La Parenthèse,,,
47.1492169,-1.5332596,restaurant,regional,Le Relais,,,
47.1502867,-1.5334250,restaurant,,La Diligence,,,
47.1544930,-1.5365987,restaurant,chinese,La villa D'or,,,
47.1536313,-1.5359525,restaurant,american,Street West,,,
47.1918528,-1.5461405,restaurant,,Le canon à Pat,,,
47.1909298,-1.5476655,restaurant,crepe,Pesk Aour,"Mo-Fr 12:00-14:00,19:00-21:00",,
47.1908436,-1.5476419,restaurant,japanese,Lotus d'or,,,
47.1914861,-1.5700310,restaurant,french,Passe moi l'sel,Mo-Fr 08:30-16:00,,
47.2161995,-1.5355263,restaurant,,Convivio,,,
47.2166186,-1.5591584,restaurant,french,"Restaurant ""L'estérel""",,,
47.2984771,-1.4921592,restaurant,asian,Soï - Asian Bistro,"Tu-Su 12:00-14:00,19:00-22:00",,
47.2984794,-1.4925314,restaurant,italian;pizza,La Vespa des Halles,"Mo-Su 11:30-15:30,18:30-23:59",,
47.1933190,-1.6472779,restaurant,crepe,Au fil de l'eau,,,
47.2971087,-1.4865358,restaurant,,Hôtel Restaurant de la Croix Verte,,,
47.2278315,-1.6324236,restaurant,italian,Bellacittà,"Mo-Th 11:30-14:30,18:30-22:30; Fr 11:30-14:30,18:30-23:00; Sa 11:30-15:00,18:30-23:00; Su 11:30-15:00,18:30-22:30",,
47.2592792,-1.6559959,restaurant,pizza; grill,Grill & Cow,"Mo-Fr 12:00-14:00,19:00-23:00",,
47.2304819,-1.6279896,restaurant,burger,Je n'aime que toi,Mo-Fr 11:30-14:30,,
47.2299947,-1.6280003,restaurant,french,Moïa,"Mo-Sa 12:00-14:00,19:00-22:30; Su 12:00-14:00",,
47.2155377,-1.5538961,restaurant,crepe,La Cordelière,,,
47.2570480,-1.4260843,restaurant,french,Auberge Nantaise,,,
47.2121798,-1.5468426,restaurant,,La Mangouste,,,
47.2339300,-1.5355345,restaurant,pizza,Basilic & Co,"Mo-Th, Su 11:30-14:00, 18:30-22:00; Fr, Sa 11:30-14:00, 18:30-22:30",,
47.2050920,-1.5577688,restaurant,burger,Le Melting Potes,"Mo-Su 12:00-14:00,18:30-22:00",yes,yes
47.1901847,-1.5198938,restaurant,,La Cave du Lion d'Or,"Tu-Sa 09:30-12:30,14:30-19:30",,
47.2145341,-1.5751845,restaurant,french,Le Canclaux,,,
47.1439783,-1.6875148,restaurant,pizza,L'Arlequin,,,
47.2543076,-1.6172660,restaurant,regional,Aux Plaisirs d'Antan,12:00-14:30,,
47.2275225,-1.6366800,restaurant,,Les Relais d'Alsace,"Su-Th 11:45-14:30,19:00-22:30, Fr,Sa 11:45-14:30,19:00-22:30",,
47.2525576,-1.6254751,restaurant,french,Le Pavillon,,,
47.2534301,-1.6269617,restaurant,,Z'O Brasserie,,,
47.2500908,-1.6193703,restaurant,,Carré Boeuf,,,
47.2556250,-1.6306635,restaurant,french,Les Gourmands'Disent,,,
47.2184711,-1.5656076,restaurant,french,Le Bistrot à Gilles,,yes,
47.1812219,-1.5938996,restaurant,,La Mise en Bouche,,,
47.1858267,-1.5967964,restaurant,,,,,
47.2244829,-1.6261593,restaurant,french,Le Malala,"Mo-Su 12:00-14:30, Su-Th 19:00-22:30, Fr,Sa 19:00-23:00",,
47.2173858,-1.5462666,restaurant,thai,Vanola,"Tu-Sa 12:00-14:00,19:00-22:00",,
47.2177032,-1.5454801,restaurant,italian,La Tavola,"Tu-Fr 12:00-14:00,19:00-22:00; Sa 19:00-22:00",,
47.2169386,-1.5553852,restaurant,crepe,Créperie Saint-Léonard,"Mo,Sa 11:30-21:45; Tu-Fr 11:30-16:30; Th 11:30-15:00",,
47.2169273,-1.5555622,restaurant,,Chop Chop,Mo-Sa 09:00-18:00,yes,yes
47.2172782,-1.5554946,restaurant,french,L'Instinct Gourmand,"Tu-Sa 12:00-14:00, Tu-Fr 20:00-22:00, Sa 19:30-22:00",,
47.2171042,-1.5551286,restaurant,,Le Bouchon,"Tu-Th 12:00-14:00,19:45-22:00; Fr 12:00-14:00,19:45-22:30; Sa 19:45-22:30",,
47.2168519,-1.5562450,restaurant,,Chez Fernand,,,
47.2166290,-1.5562492,restaurant,crepe,Le Coin des Crêpes,"Tu-Sa 12:00-14:00,19:00-22:00",yes,no
47.2167026,-1.5562471,restaurant,turkish;greek,Kusadasi,,,
47.2179441,-1.5562372,restaurant,japanese;ramen,Kenji & Louise,Tu-Fr 12:00-14:00; Th-Sa 19:00-21:30,,
47.2193349,-1.5557498,restaurant,indian,Inde et vous,"Mo-Sa 12:00-14:30,19:00-22:30; Su 12:00-14:30,19:00-22:30 ""Uniquement sur réservation le dimanche midi""",yes,yes
47.2194684,-1.5555438,restaurant,indian;pakistanese,Suraj,"Mo-Su 12:00-14:30,19:00-23:00",yes,
47.2182956,-1.5568418,restaurant,french,Le Break,,,
47.2184133,-1.5568038,restaurant,french,Le Coq en Pâte,"Mo 09:30-15:30,18:30-24:00; Tu-Fr 00:00-02:00,09:30-15:30,18:30-24:00; Sa 00:00-02:00,18:30-24:00; Su 00:00-02:00",,
47.2180474,-1.5563952,restaurant,french,Mademoiselle B,"Tu 12:00-13:30; We-Fr 12:00-13:30,20:00-22:00; Sa 19:30-22:00",,
47.2180816,-1.5555548,restaurant,pizza,Pizzéria Pinocchio,"Tu-Sa 12:15-13:45,19:15-22:45",,
47.2178672,-1.5567832,restaurant,lebanese,Youna,"Tu-Sa 12:00-14:30,19:00-22:30",yes,
47.2190719,-1.5552606,restaurant,,L'Agave,,,
47.2164581,-1.5492564,restaurant,regional;crepe,La Favorite,Feb-Dec: Tu-Su 10:00-18:00,,
47.2175328,-1.5564098,restaurant,thai,Chaiyo,"Mo-Su 12:00-14:30,19:30-22:40",,
47.2176911,-1.5562423,restaurant,international,Vue du Monde,"Tu 12:00-14:00; We,Th 12:00-14:00,20:00-21:00; Fr 12:00-14:00,20:00-21:30; Sa 20:00-22:00; Su 11:30-13:30",,
47.2174444,-1.5567052,restaurant,french,Tabl'o Gourmand,08:00-19:00,,
47.2181895,-1.5537630,restaurant,pizza,Pizzeria Dell'Etna,"Mo-Sa 12:00-14:30,19:00-23:00; Su 19:00-23:00",,
47.2484496,-1.5519268,restaurant,coffee_shop,Les Facultés,Mo-Fr 07:00-21:00; Sa 09:00-14:00,,
47.2172215,-1.5539096,restaurant,french,La Souris d'Agneau,,,
47.2171405,-1.5543102,restaurant,french,L'Aménité,"Mo-We 12:00-13:30,20:00-21:30; Th,Fr 12:00-13:30,20:00-22:30",,
47.2165132,-1.5550782,restaurant,,Vacarme,We-Fr 09:00-23:00; Sa 10:00-23:00; Su 11:00-17:00,,
47.2163170,-1.5553452,restaurant,thai,Pitaya,Mo-Su 12:00-23:00,,
47.2160351,-1.5552151,restaurant,french;burger;pizza;salad,La Vespa des Carmes,,,
47.2159508,-1.5551972,restaurant,pizza,La Vespa des Carmes,,,
47.2192504,-1.5548915,restaurant,,Art'N Blum,"Tu-Sa 12:00-14:00,19:30-21:30",,
47.2193854,-1.5547636,restaurant,chinese,La Porcelaine,"Mo 12:00-15:00; Tu-Sa 12:00-15:00,19:00-23:00",,
47.2194419,-1.5547105,restaurant,french;burger;salad,Le Cook Town,,,
47.2172500,-1.5532084,restaurant,pizza,Da Luca,,,
47.2165490,-1.5529968,restaurant,crepe,Crêperie de Briord,"Mo 12:00-14:30; Tu-Th 12:00-14:30,19:00-21:30; Fr,Sa 12:00-14:30,19:00-22:00",,
47.2168813,-1.5525904,restaurant,regional,Sources,"Tu-Fr 12:15-13:45, We-Sa 19:15-22:00; Sa 12:15-14:30",,
47.1885361,-1.4714109,restaurant,steak_house,La Boucherie,,,
47.2148653,-1.5543898,restaurant,french,LuS'in,,yes,
47.2149585,-1.5539190,restaurant,asian,Nantes-Asie,"Mo-Sa 12:00-14:00,19:00-22:00",,
47.2216209,-1.5360806,restaurant,,Personnes,,yes,yes
47.2203969,-1.5350112,restaurant,asian,La Jonque,,,
47.2207380,-1.5353109,restaurant,asian,Mai Lan,"Mo-We 12:00-14:00; Th 12:00-14:00,19:30-21:30; Fr 12:00-14:00,19:30-22:00; Sa 19:30-22:00",,
47.2535687,-1.5405156,restaurant,,La belle équipe,"Mo-We 10:00-00:00, 09:00-18:00; Th-Sa 10:00-02:00; Su 10:00-00:00",,
47.2154095,-1.5525085,restaurant,regional,Crêperie du Bouffay,,,
47.2154948,-1.5533390,restaurant,crepe,Barapom,,,
47.2155323,-1.5531923,restaurant,vietnamese,Quê me,,,
47.2151431,-1.5524300,restaurant,asian,Au Village d'Asie,"Mo-Su 12:00-14:30,19:00-22:30",,
47.2150532,-1.5526764,restaurant,thai,Solita Traiteur,"Mo-Sa 12:00-15:00,18:00-22:00",,
47.2138381,-1.5536445,restaurant,vietnamese,Asie Neptune,,,
47.2134837,-1.5541658,restaurant,indian,Le Bombay,"Mo-Su 12:00-14:30,19:00-23:00",,
47.2139913,-1.5533606,restaurant,thai,Pitaya,Mo-Su 11:30-22:30,yes,
47.2135502,-1.5540041,restaurant,mexican,Tierra Maya,"Tu,We 19:00-22:15; Th 12:00-14:30,19:00-22:15; Fr 12:00-14:30,19:00-23:00; Sa 19:00-23:00",,
47.2139319,-1.5532915,restaurant,poutine,Comptoir à Poutine,Mo 11:00-15:00; Tu-Sa 11:00-22:00,,
47.2134482,-1.5538957,restaurant,french,Le Falstaff,"Tu-Sa 12:00-14:00,19:00-22:00",,
47.2136490,-1.5537502,restaurant,french;burger,The Frenchie,"Tu-Fr 12:00-14:00,19:00-22:00;Sa,Su 12:00-14:00,19:00-22:30",,
47.2134198,-1.5539680,restaurant,japanese,Sankai,"Mo,We 12:00-14:00; Tu,Th 12:00-14:00,19:00-21:00; Fr 12:00-14:00,19:00-21:30; Sa 19:00-21:30",,
47.1562569,-1.5374636,restaurant,,Les relais d'Alsace,,,
47.2151613,-1.5522691,restaurant,italian,Gino,,,
47.2156040,-1.5523827,restaurant,regional,La Blanche Hermine,,,
47.2155407,-1.5523748,restaurant,french,La Cabane,,,
47.2153851,-1.5523484,restaurant,asian,La Grande Muraille,"Mo-Fr 12:00-14:30,19:00-23:00; Sa,Su 12:00-14:30,19:00-23:30; We off",,
47.2157382,-1.5519464,restaurant,tapas,La Maison du Pata Negra,Tu-Sa 18:00-00:00,,
47.2157355,-1.5522142,restaurant,asian,Le Temple du Ciel,,,
47.2158647,-1.5525137,restaurant,japanese;korean,Asahi,,,
47.2158346,-1.5518747,restaurant,indian,Le Gandhi,"Mo 19:00-23:00; Tu-Su 12:00-14:30,19:00-23:00",,
47.2159161,-1.5525395,restaurant,greek,Le Kyros,,yes,yes
47.2159024,-1.5521125,restaurant,,Le Patio'nnément,"Mo-We 12:00-14:00,19:30-23:00; Th-Sa 12:00-14:00,19:30-00:00",,
47.2163525,-1.5517123,restaurant,,Le Cochon qui fume,"Mo-Su 12:00-14:30,19:00-22:30; Fr,Sa 12:00-14:30,19:00-23:30",,
47.2163176,-1.5520120,restaurant,burger,La Ripaille,"Mo-Fr 12:00-15:00,18:00-22:30; Sa-Su 12:00-23:00",,
47.2163523,-1.5527541,restaurant,bowl,Hawa Bowls,,,
47.2163287,-1.5519145,restaurant,asian,My Little Warung,,,
47.2162797,-1.5521914,restaurant,french,Dînette,Mo-Su 12:00-19:00; Tu off,,
47.2162284,-1.5525730,restaurant,french,Le Select,Tu-Sa 10:00-02:00; Su 10:00-19:00,,
47.2162611,-1.5522910,restaurant,italian,San Marco,,,
47.2150343,-1.5549896,restaurant,,Coq Monsieur,"Tu-Sa 12:00-14:00,19:00-22:30",,
47.2143002,-1.5547727,restaurant,pizza,La tomate,"PH,Mo-Su 12:00-22:00",,
47.2144496,-1.5553095,restaurant,asian,Wok to Walk,Mo-We 11:00-23:00; Th-Sa 11:00-24:00,yes,
47.2142469,-1.5550105,restaurant,italian,Fuxia,,,
47.2143452,-1.5545523,restaurant,asian,Yum Yum,,,
47.2125209,-1.5521353,restaurant,pizza,La Casa Rossa,"Mo 12:00-14:00; Tu-Fr 12:00-14:00, 19:00-22:30; Sa 19:00-23:00",,
47.2185898,-1.5645057,restaurant,World,Nice Hair,Tu-Fr 09:00-19:00; Sa 09:00-15:00,,
47.2184939,-1.5640476,restaurant,crepe,Parfum De Crêpes,"Tu,Sa 12:00-14:00; We-Fr 12:00-14:00,19:00-22:00; Sa 19:00-22:00 ""by appointment, if more than 15 people""",,
47.2221772,-1.6272195,restaurant,,Délices du monde,,,
47.2124636,-1.5481305,restaurant,french,Les Chants d'Avril,,,
47.2075790,-1.5641153,restaurant,italian,Paola,"Mo-We 12:00-14:00; Th 12:00-14:00,18:00-22:00; Fr 12:00-14:00,18:00-23:00; Sa 12:00-14:30,19:30-23:00; Su 12:00-15:00",,
47.2073935,-1.5645533,restaurant,,L'Écureuil,,,
47.2050937,-1.5635443,restaurant,,Stéréolux,,,
47.2048776,-1.5598220,restaurant,international,L'arrosoir,,,
47.2048600,-1.5599988,restaurant,pizza;french,Les Arrosés,Mo-Fr 12:00-14:00; We-Sa 18:30-21:30; Su 18:00-21:30,,
47.2209696,-1.5481530,restaurant,regional,Les Comptoirs d'Armorique,,,
47.2204021,-1.5489768,restaurant,indian,Aux Saveurs des Indes,,,
47.2210511,-1.5480512,restaurant,,Le Voyage à Damas,,,
47.2207484,-1.5485986,restaurant,crepe,Avec du beurre dedans,,,
47.2203407,-1.5488154,restaurant,french,La Quincaillerie,"Mo-Sa 12:00-14:10, Th 19:00-22:00, Fr,Sa 19:30-22:30",,
47.2201959,-1.5489743,restaurant,,Cours 87,,,
47.2199358,-1.5492616,restaurant,thai,Thaïgan,Tu-Sa 18:30-22:30; Su 18:00-21:00,,
47.2203498,-1.5490307,restaurant,lebanese,Lebnane,,,
47.2316557,-1.6114041,restaurant,,Hôtel-restaurant de La Marine,,,
47.2217224,-1.5362079,restaurant,pizza,Popolo,,,
47.2195702,-1.5344925,restaurant,pizza,La Stazione,"Tu-Fr,Su 18:45-21:30",,
47.2157748,-1.5526956,restaurant,french,Chez Maman,"Mo-Su 12:00-14:00,19:00-22:30; Fr,Sa 12:00-14:00,19:00-23:00",,
47.2156719,-1.5530737,restaurant,lebanese,Byblos,"Su 12:00-15:00, 19:00-22:30; Fr-Sa 12:00-14:30, 19:00-23:00; Mo, We-Th 12:00-14:30, 19:00-22:30",yes,yes
47.2157438,-1.5528193,restaurant,crepe,Chez Manie Nénette,,,
47.2157581,-1.5527592,restaurant,thai,Kim Restaurant,,,
47.2157093,-1.5529367,restaurant,couscous,Le Couscoussier,,,
47.2150613,-1.5379268,restaurant,sushi,Suko,"Mo-Fr 11:30-14:30, 17:30-22:00",,
47.2157120,-1.5524151,restaurant,french;regional,Ma Poule,,,
47.2011538,-1.5732296,restaurant,,Canaille,,,
47.2217321,-1.5643811,restaurant,french,Tartines et Bouchons,"Mo 10:30-15:00; Tu-Fr 10:30-15:00,19:00-24:00",no,
47.2618922,-1.6702772,restaurant,pizza,Villa Roma,,,
47.2047582,-1.5484584,restaurant,brasserie,Le bar île,,,
47.2066520,-1.5491605,restaurant,brasserie,La Grande Barge,Mo-Fr 12:00-14:00,yes,
47.2065311,-1.5491321,restaurant,breton,Ti lichous,"Mo-Sa 12:00-15:00 || ""Sur réservation""",,
47.2042023,-1.5113247,restaurant,italian,Reginella,,,
47.2186533,-1.5521675,restaurant,french,La Cachette,We-Fr 12:00-14:30; Tu-Sa 19:30-22:00,,
47.2175809,-1.5515007,restaurant,french,La Ciboulette,"12:15-13:30; Fr 12:15-13:30,19:45-21:30; Sa 19:45-21:30",,
47.2177127,-1.5520513,restaurant,pizza,Nota Bene,"Mo-We 12:00-14:00,19:00-22:30; Th-Sa 12:00-14:00,19:00-23:30; Su off",,
47.2178635,-1.5520893,restaurant,french,Lamaccotte,"Mo-Fr 12:00-13:30,19:30-21:30; Sa 19:30-21:30",,
47.2174412,-1.5532761,restaurant,french,Les Petits Saints,"Mo-Sa 12:00-14:00,19:30-22:00",,
47.2153845,-1.5451711,restaurant,french,Restaurant du Lieu Unique,"Mo 12:00-14:00; Tu-Th 12:00-14:00,19:00-23:00; Fr-Sa 12:00-14:00,19:00-00:00",yes,no
47.2151964,-1.5569992,restaurant,japanese;venezuelian,Sushi'Kito,"Tu-Sa 12:30-14:00,19:30-22:30; Su 19:30-22:30",,
47.2129659,-1.5554472,restaurant,lebanese,Le Cèdre,"Mo-Sa 12:00-14:00,19:00-23:00",yes,yes
47.2129302,-1.5555421,restaurant,afghan,Kaboul,"Mo-Th 12:00-14:00,19:00-22:00; Fr,Sa 12:00-14:00,19:00-22:30; Su 19:00-22:00",,
47.2127843,-1.5555238,restaurant,indian,Royal Indien,"Mo-Sa 12:00-14:30,19:00-22:30",yes,yes
47.2126603,-1.5558296,restaurant,tapas,Tapas & Vinos,"Tu-Th 12:00-14:00,19:00-22:00; Fr 12:00-14:00,19:00-23:30; Sa 19:00-23:30",,
47.2125103,-1.5565656,restaurant,french,A Cantina,"Mo 12:00-14:00; Tu-Fr 12:00-14:00,19:00-22:00; Sa 19:00-22:00",,
47.2237982,-1.5640319,restaurant,french,L'Arvigate,,,
47.2080652,-1.5604411,restaurant,french,Le 1,,,
47.2203721,-1.5631261,restaurant,korean,BibimboX,"Tu-Sa 11:30-14:30, Th-Sa 19:00-22:00",,
47.2112804,-1.5470561,restaurant,,Bistrot le 90’s,,,
47.2449905,-1.4690250,restaurant,french,Bénureau,,,
47.2881100,-1.4359080,restaurant,,La Closerie,,,
47.2649502,-1.4395164,restaurant,french,La chaumière,off,,
47.2329443,-1.4629143,restaurant,,Villa Mon Rêve,,,
47.1694701,-1.4662583,restaurant,,La Haute Forêt,,,
47.2153364,-1.4749245,restaurant,,Restaurant du pont,,,
47.1685074,-1.4807360,restaurant,french,L'écluse,,,
47.1871245,-1.4819161,restaurant,,Au goût du jour,,,
47.2220885,-1.5626481,restaurant,,Amour de Cuisine,Mo-Fr 11:30-14:30; Th 18:30-23:30,no,
47.2206081,-1.5616738,restaurant,french,Mauricette,"Oct-Mar Mo-We 09:30-15:00; Oct-Mar,Apr-Sep Th-Sa 09:30-24:00; Apr-Sep Mo-We 09:30-22:00",,
47.2205010,-1.5629878,restaurant,french,Pierrot Gourmet,Mo-Fr 12:00-14:00; Fr 19:30-22:00,,
47.2236903,-1.5639399,restaurant,italian;pizza,La Pizza,"Mo-Fr 12:00-14:00, Su-Fr 18:30-22:00",,
47.2224594,-1.5629357,restaurant,asian,Le Jasmin,"Mo-Fr 10:45-14:00,16:30-20:00",,
47.2227269,-1.5633521,restaurant,,battos,"Mo-Tu 12:00-15:00; We-Sa 12:00-15:00, 19:30-22:00",,
47.2240927,-1.5643731,restaurant,french,Les Petits Pavés,Mo-Fr 09:00-22:00,,
47.2230564,-1.5633801,restaurant,peruvian,De Lima,We-Sa 11:30-23:00,,
47.1912449,-1.4868212,restaurant,,Les jardins du Maroc,,,
47.2688876,-1.6969412,restaurant,sandwich,,,,
47.2537374,-1.6187225,restaurant,french,Bar Brasserie du Village,,,
47.1899057,-1.5189283,restaurant,,So Good Brasil,,,
47.1903960,-1.5205738,restaurant,,Le Pacha,"Mo-Th 11:00-22:00; Fr,Sa 11:00-23:00",,
47.2077833,-1.5590681,restaurant,brasserie,Au Bureau,"Mo-Su 10:00-24:00; Fr,Sa 10:00-01:00",,
47.2072073,-1.5548612,restaurant,french,Chez Louisette,"Mo 12:00-14:00; Tu-Fr 12:00-14:00,18:00-02:00; Sa 18:00-02:00",,
47.2403796,-1.5134223,restaurant,international;sandwich;salad,Les cousins,Tu-Sa 09:00-21:00,,
47.1687718,-1.5981998,restaurant,,Du Coq à l'Âne,Mo-Fr 12:00-14:00,,
47.2129163,-1.5602069,restaurant,french;regional,Aux Fourneaux,"Tu-Th 12:00-14:00,19:30-21:30; Fr,Sa 19:30-22:30",,
47.2130007,-1.5608887,restaurant,french;bistro,Simone,"Mo off; Tu-We 12:00-14:00,19:00-22:00; Th 12:00-14:00,19:00-22:30; Fr 12:00-14:00,19:00-23:00; Sa 12:00-14:30,19:00-23:00; Su off",,
47.2131745,-1.5603945,restaurant,french,Le Guinguois,"Mo 12:00-15:30,18:30-24:00; Tu-Fr 00:00-02:00,18:30-24:00; Sa 00:00-02:00,12:00-24:00; Su 00:00-02:00",,
47.2133362,-1.5604153,restaurant,asian;french,Song,"Tu-Th 12:00-14:00,19:30-22:30; Fr,Sa 12:00-14:00,19:30-23:00",,
47.2130804,-1.5602150,restaurant,seafood;tapas;burgers,La Tablée,"Tu,We 12:00-14:00,18:00-22:00; Th,Fr 12:00-14:00,18:00-22:30; Sa 12:00-14:30,18:00-23:00",,
47.2127349,-1.5608755,restaurant,regional,Au Coup d'Canon,"Mo 12:00-15:00,18:00-24:00; Tu-Sa 00:00-02:00,12:00-15:00,18:00-24:00; Su 00:00-02:00",,
47.2128184,-1.5615359,restaurant,french;burger,Le B,"Tu-Th 12:00-14:00,19:15-23:00; Fr 12:00-14:00,19:15-23:30; Sa 12:00-15:00,19:15-23:30",,
47.2129432,-1.5614257,restaurant,regional,Le Bouche à Oreille,,,
47.2124214,-1.5600560,restaurant,indian,Nandi,"Mo-Th 12:00-14:00,19:00-22:00; Fr,Sa 12:00-14:00,19:00-23:00; Su 19:00-22:00",,
47.2126471,-1.5610760,restaurant,french,Les Pieds dans le Plat,Mo-Su 11:30-24:00,yes,
47.2128536,-1.5616327,restaurant,french,Mathurin,"Tu-Sa 10:00-14:00,19:00-23:00",,
47.2128954,-1.5617476,restaurant,indian,Shalimar,"Mo-Su 12:00-14:00,19:30-22:45",,
47.2270934,-1.5528064,restaurant,pizza,Brasserie Le Waldeck,"Mo 12:00-14:00; Tu-Th 12:00-14:00,17:30-22:00; Sa 17:30-22:00",,
47.2115850,-1.5519225,restaurant,french,La Virgule,,,
47.2140160,-1.5590013,restaurant,crepe,Crêperie de Brocéliande,"Tu-Sa 12:00-14:30,19:00-22:30",,
47.2140497,-1.5591199,restaurant,crepe;teahouse;cake,Crêperie Heb Ken,Mo-Sa 11:45-23:00,yes,no
47.2127965,-1.5592466,restaurant,,Le Rio,,,
47.2523050,-1.6244499,restaurant,italian,Tom'Wich,,,
47.2136096,-1.5580981,restaurant,,Italian Trattoria,Mo-Su 10:00-22:30,yes,no
47.2225000,-1.6291700,restaurant,,Bistro Régent,,,
47.2117783,-1.5469320,restaurant,french,L'U.ni,"We-Sa 12:00-13:30,19:30-21:30; Su 19:30-21:30",,
47.2180963,-1.5557371,restaurant,,Pickles,,,
47.2120294,-1.5468753,restaurant,french,Bé2M,"Tu-Fr 11:00-15:00,17:00+; Sa 17:00+",,
47.2210212,-1.5591333,restaurant,,Les Bouteilles,,,
47.2123420,-1.5644152,restaurant,,Le Bistrot du 7,"Tu,We 12:00-14:00; Th-Sa 12:00-14:00,19:30-22:30",,
47.1849986,-1.5460890,restaurant,sushi;japanese,SUKO,"Mo-Sa 11:30-14:30,17:30-22:00; Su 18:00-22:00",,
47.1795396,-1.6232108,restaurant,pizza,,,,
47.2862939,-1.5453630,restaurant,,Le Saintonge Grill,"Mo-Th 12:00-14:00; Fr 12:00-14:00, 19:00-22:30; Sa 19:00-22:30",,
47.2163289,-1.5507106,restaurant,crepe,Chez les Ducs,,,
47.1690228,-1.4736962,restaurant,pizza,L'Adriatique,,,
47.2167552,-1.5588007,restaurant,french,Chez ta mère,"Mo-Th 08:00-20:00; Fr,Sa 08:00-22:00",,
47.2096471,-1.5686037,restaurant,indian,Les Épices de l'Inde,"Mo-Su 12:00-14:00,19:00-22:30",yes,yes
47.2983543,-1.4925261,restaurant,french,L'Authentique,Tu-Sa 09:30-19:15; Su 09:30-12:30,,
47.2118598,-1.5646574,restaurant,mediterranean,Imagine,"Tu 12:00-14:30; We-Fr 12:00-14:30,19:00-22:00; Sa 19:00-22:00; Su 11:00-14:30",,
47.2129867,-1.5825142,restaurant,couscous,Hayat Casa,"Mo-Sa 12:00-14:00, 19:00-22:00",,
47.2114911,-1.5669665,restaurant,crepe,La Gavotte,"Tu-Sa 12:00-14:00,19:00-21:00+",yes,
47.2118506,-1.5620042,restaurant,crepe,Ker Breizh,"Tu-Th 12:00-14:00,19:00-21:30; Fr,Sa 12:00-14:00,19:00-22:00",yes,
47.2133018,-1.5608611,restaurant,brunch;bagel;cake,Tabl'O Gourmand,Mo-Su 08:00-19:00,,
47.2970123,-1.4920005,restaurant,,Exquis,,,
47.2970885,-1.4919735,restaurant,brasserie,L'Atelier,,,
47.2103276,-1.5472620,restaurant,french,Omija,,,
47.2231104,-1.6314871,restaurant,pizza,Pizzeria Zio Gino,,,
47.2233794,-1.6314059,restaurant,chinese,La perle de Shanghai,,,
47.2232438,-1.6314624,restaurant,crepe,Crêperie Tante Yvette,,,
47.2150712,-1.5511675,restaurant,crepe,Crêperie des Ducs,,,
47.2130957,-1.5617400,restaurant,french,Le Charles H,"Mo-We 12:00-14:00,19:30-22:00; Th 12:00-14:00,19:30-22:30; Fr,Sa 12:00-14:30,19:30-23:00; Su 12:00-15:00,19:30-22:45",,
47.1251724,-1.4187858,restaurant,,Le pan Coupé,,,
47.2061123,-1.5579579,restaurant,hot_dog;french,Paws,"Tu-Sa 10:00-15:00,17:30-02:00",,
47.2890027,-1.5248769,restaurant,,Restaurant Universitaire,Mo-Fr 11:45-13:45,,
47.2227492,-1.5482840,restaurant,,Le Brocéliande,"Mo-We 08:30-24:00; Th,Fr 08:30-02:00; Sa 18:00-02:00; Su 17:30-23:59",yes,
47.2080857,-1.5388952,restaurant,salad;wrap;sandwich;soup,Kel'Bon'Heure,Mo-Fr 09:00-14:30,,
47.2043057,-1.5480808,restaurant,international,Malumbi,Mo-Fr 11:00-17:30,,
47.2064917,-1.5543396,restaurant,pizza,La pâte folle,"Mo-Fr 12:00-14:00,19:00-22:00; Sa,Su 19:00-22:00",,
47.2067403,-1.5504860,restaurant,lebanese,Manaïche,Mo-Fr 12:00-14:30,yes,
47.2008404,-1.5458731,restaurant,moroccan,Oasis Express,"Tu-Su 11:00-13:30, Tu-Sa 17:30-20:30",,
47.2011718,-1.5455931,restaurant,vietnamese,La Pagode,"Mo-Su 11:30-13:00,18:30-21:30",,
47.2022848,-1.5482482,restaurant,,Bassrie Café VH,,,
47.2049439,-1.5549493,restaurant,french,République Côté Jardin,"Mo-Sa 12:00-14:30; Th-Sa 12:00-14:30,19:00-22:00",,
47.2052534,-1.5561607,restaurant,,Chez B.B.,"Mo 08:30-16:00; Tu,We 08:30-15:00,18:00-23:00; Th,Fr 08:30-15:00,18:00-23:30",,
47.2058261,-1.5548981,restaurant,crepe,Just Bigoud',Mo-Fr 12:00-14:30; Fr 19:00-22:00,,
47.2043626,-1.5355966,restaurant,french,Côté Grange,Mo-Sa 11:45-14:00,yes,
47.2119489,-1.5462896,restaurant,burger,Les Burgers de Papa,off,,
47.1949805,-1.5268768,restaurant,french,Restaurant intergénérationnel du Clos Toreau,,,
47.1774197,-1.6784838,restaurant,french,Flunch,Mo-Su 11:00-21:00,,
47.2068325,-1.5636798,restaurant,french,Le Progrès,12:00 - 14:00,,
47.2195753,-1.5590224,restaurant,,Au Gros Jarret,,,
47.2194778,-1.5590289,restaurant,,La Mandale,"Mo-Fr 12:00-13:30, 19:30-21:15",,
47.2194163,-1.5590313,restaurant,asian,Sorya,Tu-Fr 12:00-19:00; Sa 12:00-15:00,,
47.2193046,-1.5590430,restaurant,afghan,L'Ariana,"Tu-Fr 12:00-14:00, 19:00-22:00; Sa 19:00-22:00",,
47.1564414,-1.5961670,restaurant,italian;pizza,Il Bambino,"Mo-Fr 12:00-14:30,19:00-22:00",,
47.1873983,-1.6870783,restaurant,,Le Pré Gourmand,"Mo-We 12:00-14:00,20:00-22:00; Th 12:00-14:00,20:00-22:00 ""Sur réservation, minimum 10 personnes""; Fr,Sa 12:00-14:00,20:00-22:00",,
47.1873473,-1.6871239,restaurant,pizza,Speed'zzeria,We-Su 18:00-23:00,,
47.1878642,-1.4731452,restaurant,salad;wok;wrap,UNIK,Mo-Th 09:00-21:30; Fr-Sa 9:00-22:30,,
47.2221421,-1.6269897,restaurant,,La Pataterie,"Mo-Su 11:45-14:00,19:00-23:00",,
47.2337406,-1.5664634,restaurant,pizza,Pizza Tempo,"Mo-Sa 11:30-14:00,18:00-23:00; Su 11:30-14:30,18:00-23:00",,
47.2060714,-1.5564825,restaurant,pizza;salade;anti-pasti;burrata,180g Pizza,Mo-Fr 12:00-14:00; Mo-We 19:30-22:00; Th-Sa 19:30-22:30; Su 19:00-22:00,,
47.2146144,-1.5552587,restaurant,french,À la bonne Franckette,"Mo-Th 12:00-14:30,19:00-22:00; Fr-Sa 12:00-14:30,19:00-22:00; Su 12:00-15:00",,
47.2968456,-1.4920131,restaurant,crepe,Crêperie Hors du Temps,,,
47.2120585,-1.5459799,restaurant,french,Les Voisins,"Mo 12:00-14:30; Tu,We 12:00-14:30,17:00-21:00; Th 12:00-14:30,17:00-22:00; Fr 12:00-22:30",,
47.2133199,-1.5534869,restaurant,,Sépia,"Tu,We 12:15-13:45; Th,Fr 12:15-13:45,19:00-21:00; Sa 19:00-21:00; Su 10:30-14:30",yes,
47.2134417,-1.5533329,restaurant,international;korean;fast_food,Dakoo,"Tu,We,Th 12:00-14:00,19:00-22:00; Fr,Sa 12:00-14:00, 19:00-22:30",,
47.2012120,-1.5777212,restaurant,,L'Atlantide 1874,"Mo-Sa 12:00-13:30,19:30-21:30; Su off",,
47.2152278,-1.5410473,restaurant,french,La Pergola,,,
47.1961935,-1.5555252,restaurant,french,Des bienvenus,,,
47.1960006,-1.5550141,restaurant,french,Les Isles,,,
47.2511476,-1.5202693,restaurant,french,Poivre Rouge,,,
47.1231928,-1.5845586,restaurant,crepes,Rozelliande,,,
47.1235524,-1.5842415,restaurant,pizza,Pat' à Pizz',,,
47.1226619,-1.5837285,restaurant,,Au Plaisir Gourmet,,,
47.2627618,-1.6741743,restaurant,,La Boutique A Pizza,"Mo-Th 11:30-14:00, 18:30-23:00; Fr-Sa 18:30-23:00; Su 18:30-22:30",,
47.2098370,-1.5702089,restaurant,lebanese,Coin de Jasmine,"Mo-Sa 12:00-14:30,19:00-22:30",,
47.2159569,-1.5339198,restaurant,french,Les Brassés,Mo-We 12:00-24:00; Th-Sa 12:00-02:00; Su 12:00-15:00,,
47.2010662,-1.5318685,restaurant,,Le Rive Gauche,,,
47.1880175,-1.5516662,restaurant,japanese,Jiajiale,,,
47.1895418,-1.4894585,restaurant,asian;wok,Jardin de chine,"Mo-Su 12:00-14:30,19:00-22:30",,
47.2149227,-1.5535270,restaurant,french,La Prison du Bouffay,"Mo-Th 11:45-14:30,18:45-23:00; Fr 11:45-14:30,18:45-00:00; Sa 11:45-15:30,18:45-00:00; Su 11:45-15:30,18:45-22:30",,
47.2144074,-1.5406908,restaurant,pizza,Bella Pizza,,,
47.2145180,-1.5408608,restaurant,,Papill',Mo-Fr 11:30-14:00,,
47.2426343,-1.5573577,restaurant,pizza,Le Cours d'Ô,,,
47.2133601,-1.5550091,restaurant,french,Un Nouveau Monde,,,
47.1681491,-1.4800219,restaurant,,La Cantine Ô Moines,,,
47.1931320,-1.5293418,restaurant,italian,Adriatica,,,
47.1893579,-1.5505435,restaurant,international,Au Gourmet Normand,Mo-Fr 11:00-14:00,,
47.2059014,-1.5059332,restaurant,indian,Daevi,,,
47.2058445,-1.5050093,restaurant,vietnamese,Mimi Saïgon,"Tu 17:30-20:00; We,Th 11:00-14:00,17:30-20:00; Fr,Sa 11:00-14:00,17:30-20:30",,
47.2242720,-1.6264637,restaurant,chinese,Saveurs d'Asie,"Mo-Su 12:00-14:30,19:00-22:30",,
47.2241555,-1.6265033,restaurant,japanese,Sakura,"Mo-Su 12:00-14:30,19:00-22:30",,
47.2214141,-1.5585528,restaurant,,Avel Ar Mor,Tu-Su 08:00-13:00,,
47.2214498,-1.5586984,restaurant,pizza,Le Pizzaïolo de Talensac,Th-Su 08:00-13:00,,
47.2404192,-1.5300022,restaurant,french,L'odyssée,Mo-Sa 12:00-14:30; Th-Sa 19:00-22:00,,
47.2054196,-1.5485518,restaurant,french,Le grand B,"Mo-Th 12:00-15:00; Fr 12:00-15:00,17:00-20:00",,
47.2054348,-1.5522430,restaurant,french,La p'tite Ardoise,Mo-Fr 07:00-17:00,,
47.2055554,-1.5509669,restaurant,salad;sandwich;wrap,Le Beau-Lieu Gourmand,Mo-Fr 07:30-17:30,,
47.2062271,-1.5546722,restaurant,japanese,Bento Sakura,"Mo-Th 12:00-14:30; Fr 12:00-14:30,19:00-21:30",,
47.2269384,-1.6243257,restaurant,international,Midi et Demi,Mo-Fr 11:30-14:30,,
47.2029907,-1.5524238,restaurant,pizza;burger,Boxing Food,,,
47.2016655,-1.5469124,restaurant,pizza,Pizza Tradition,"Mo-Th 12:00-14:00,17:45-22:00; Fr-Su 12:00-22:30",,
47.2059998,-1.5424561,restaurant,,Le Sémaphore,Mo-Fr 11:45-13:30,,
47.2121822,-1.5728776,restaurant,french,My Daily,"Mo-Tu,Th 08:00-15:30; We,Fr 08:45-15:30",,
47.2122466,-1.5947502,restaurant,french;pizza,L'Incubateur,"Mo-Th 12:00-14:30; Fr 12:00-14:30,18:30-21:30; Sa 18:30-21:30",,
47.2123009,-1.5720654,restaurant,french;salad;tartines,Marcel et ses tartines,Mo-Tu 12:00-15:00; We-Fr 12:00-22:00,,
47.2083344,-1.5698594,restaurant,,La Cabane Créole,"Mo 12:00-14:00; Tu-Sa 12:00-14:00,19:00-22:00",,
47.2047864,-1.5583116,restaurant,burger,Le Zed,"Mo-Fr 12:00-14:00,19:00-22:00; Sa,Su 12:00-15:00,19:00-22:00",yes,
47.2089486,-1.5286599,restaurant,french,B.A.Ba!,Mo-Fr 09:00-14:00,,
47.2087367,-1.5294898,restaurant,salad,Saveurs Time,Mo-Fr 11:30-14:00,,
47.2085780,-1.5292996,restaurant,italian,Sapore,Mo-Fr 07:00-14:00,yes,
47.2160602,-1.5428827,restaurant,french,La Brasserie,"12:00-14:00,19:00-22:00",yes,no
47.2063041,-1.5561045,restaurant,asian,bông,"Mo,Tu 11:30-15:00; We-Fr 11:30-15:00,17:00-21:00",yes,
47.2072715,-1.5647844,restaurant,thai,Pitaya,"Mo-Su 11:30-14:30,18:00-22:30",yes,yes
47.2050275,-1.5667346,restaurant,tapas,Cañas y Tapas,"Mo-Su 11:30-15:00,18:30-22:30",,
47.2121691,-1.5460708,restaurant,french,Là - Cantine Fermière,,,
47.2122289,-1.5461184,restaurant,indian,Palais de l'Inde,,,
47.2124776,-1.5463161,restaurant,french,Le Café du Marché,,,
47.1912109,-1.5481903,restaurant,crepe,La Gourmande,,,
47.2120894,-1.5462973,restaurant,japanese,Izakaya Joyi,"Mo-Tu 12:00-14:00; We-Sa 12:00-14:00,19:00-22:00",,
47.2139722,-1.5468648,restaurant,,je n'aime que toi,,,
47.2132630,-1.5463233,restaurant,french,Totum Cantine Bio,"We,Th 12:00-14:30; Fr,Sa 12:00-14:30,19:00-21:30",only,only
47.2140073,-1.5467358,restaurant,french,Les Bonimenteurs,,,
47.2119903,-1.5466484,restaurant,vietnamese,La Căn Tin Việt,,,
47.2119549,-1.5466562,restaurant,pizza,Le Comptoir Sale & Pepe,"Mo-Fr 11:30-14:30,18:30-22:30; Sa 18:30-22:30",,
47.2112146,-1.5470647,restaurant,french,Le Gressin,"Mo 12:00-14:00; Tu-Th 12:00-14:00,19:30-21:30; Fr 12:00-14:00,19:30-22:00; Sa 19:30-22:00",,
47.2117550,-1.5467043,restaurant,french,Cocotte,off,,
47.2116553,-1.5467230,restaurant,french,Plan B,Mo-Su 12:00-14:00; Mo-Su 19:00-22:00,,
47.2116314,-1.5469676,restaurant,french,Pourquoi pas chez nous ?,"Tu-Th 12:00-14:30; Fr 12:00-14:30,19:30-21:30",,
47.2115491,-1.5464647,restaurant,french,Papill',Mo-Fr 11:30-14:30,yes,
47.2121223,-1.5466175,restaurant,french,Le Tire-Bouchon,"Mo-Fr 12:00-14:00,18:00-22:00; Sa,Su ""Sur réservation de groupe""",,
47.2129198,-1.5462042,restaurant,french,Le Square,"Mo-Sa 11:45-14:00,18:45-23:00",,
47.2129771,-1.5460646,restaurant,salad;sandwich,La Petite Fourchette,,,
47.2130303,-1.5459332,restaurant,salad;sandwich;wrap;soup,SaladBar Green is Better,,,
47.2130159,-1.5657693,restaurant,french,Le MonteSquieu,"Mo-Tu 12:00-14:00; We-Fr 12:00-14:00,19:30-21:30",,
47.2152086,-1.5597152,restaurant,crepe,Mam'zelle Breizh,"Mo-Th 12:00-14:30; Fr,Sa 12:00-14:30,19:00-21:00",,
47.2144096,-1.5628651,restaurant,french,Le Petit Boucot,"Tu-Sa 12:00-13:45,20:00-21:30",,
47.2194610,-1.5546699,restaurant,egyptian;french,Beau Rêve,"Mo,Tu 11:45-14:30; We-Sa 11:45-14:30,19:00-22:00",yes,yes
47.2134823,-1.5574351,restaurant,french,Le Bouillon du Commerce,Mo-Sa 08:00-01:00,,
47.2669500,-1.4865473,restaurant,,The Black Shelter,,,
47.2150504,-1.5589701,restaurant,mediterranean,Morfal,"Tu,We 12:00-14:30;Th-Sa 12:00-14:30,19:00-21:30",yes,yes
47.2155494,-1.5587188,restaurant,french,Le Bon Pasteur,,,
47.2157034,-1.5570872,restaurant,french,Sāpiō,"Tu-Sa 12:00-14:00,19:00-21:30",,
47.2149819,-1.5591946,restaurant,italian;pizza,Guiseppe,"Mo-We 12:00-14:15; Th 12:00-14:15,19:00-22:00; Fr,Sa 12:00-14:15,19:00-23:00",,
47.1958954,-1.5307775,restaurant,french,Campanile,"Mo-Su 12:00-14:00,19:00-22:00",,
47.2011174,-1.5548301,restaurant,french,La Chaumière,,,
47.2012571,-1.5546244,restaurant,french,Le petit Rungis,"Mo-Fr 06:30-15:00,18:00-22:30",,
47.2136358,-1.5390616,restaurant,pizza,Café Cel Mar,Mo-Fr 10:00-21:00,,
47.2124947,-1.5393506,restaurant,french,La Passerelle de Marcel,"Mo-Sa 11:00-15:30, Mo-Sa 18:30-02:00",,
47.1941789,-1.5740874,restaurant,bistro,"BCB, Le Bistrot",Mo-Sa 09:00-17:00,,
47.1939041,-1.5740154,restaurant,french,Flunch,Mo-Sa 08:30-21:30; Su 11:30-21:30,,
47.2761236,-1.5121390,restaurant,coffee_shop,L'Empreinte,Mo-Fr 12:00-14:15,,
47.2196355,-1.5340114,restaurant,indian,punjab,"Mo-Su 12:00-14:30, 19:00-23:00",,
47.2289311,-1.6057462,restaurant,,Les pieds sous la table,Mo-Fr 07:30-17:00,,
47.1865087,-1.4780020,restaurant,,Restaurant de la gare,,,
47.1872653,-1.4793010,restaurant,pizza,Marcello Pizzas,"Mo-Th 11:00-14:00, Mo-Th,Su 17:30-22:30, Fr-Sa 11:00-14:00, Fr-Sa 17:30-23:00",,
47.1691476,-1.4751949,restaurant,crepe,Le Biniou,,,
47.1686240,-1.4738399,restaurant,indian,Kashfull,"Tu-Su 12:00-14:30, Tu-Su 19:00-22:30",,
47.2166957,-1.5338677,restaurant,french;salad;sandwich,Au Garde Manger,Mo-Fr 11:45-14:00,,
47.2235761,-1.6248664,restaurant,,Café Charbon,,,
47.1310036,-1.7421388,restaurant,,Auberge du Pays de Retz,,,
47.2309462,-1.6283397,restaurant,,Heyless,,,
47.2239976,-1.5592752,restaurant,french,Le Scénario,Mo-Sa 08:00-22:00,no,
47.2128246,-1.5628419,restaurant,asian,Le Wok,,,
47.2215955,-1.5575959,restaurant,japanese,Paku Paku,"Tu,We 12:00-14:00; Th-Sa 12:00-14:00,19:30-21:30",yes,yes
47.2069066,-1.5686417,restaurant,,O Deck,,,
47.2613077,-1.6676308,restaurant,,Au Retour du Marché,,,
47.2623020,-1.6715059,restaurant,,Pizzeria Piazzetta,,,
47.2626506,-1.6722463,restaurant,crêpes;gallettes;salon_de_thé,Crêperie du Marché,,,
47.2308237,-1.6283972,restaurant,,Maison Jocalia,,,
47.1858974,-1.5803415,restaurant,pizza,Colombine,,,
47.2505870,-1.4846912,restaurant,,Aux Papilles,,,
47.2105252,-1.5462218,restaurant,french,Maison Baron Lefèvre,"Tu-Sa 12:00-14:00,19:30-22:30",,
47.1775204,-1.5439614,restaurant,french,Le Coraly,,,
47.2482817,-1.5130663,restaurant,,Le Parvis,Mo-Sa 08:30-21:00,,
47.2855415,-1.4497778,restaurant,,Le Carquefolio,,,
47.2889884,-1.4649166,restaurant,,Les Briords,,,
47.2695441,-1.5175287,restaurant,pizza,L'Atrium,,,
47.1526461,-1.5355907,restaurant,chinese,LK Asia,,,
47.1535356,-1.5364456,restaurant,pizza,La Famiglia,,,
47.2193312,-1.6204807,restaurant,,Amuse Papilles,,,
47.2252731,-1.5664931,restaurant,regional,La salle à manger,Mo-Fr 12:00-14:00,,
47.2148169,-1.5413913,restaurant,,Gare aux Cocottes,Mo-Fr 11:30-14:30,no,
47.2149466,-1.5415241,restaurant,international,epikur,Mo-Fr 11:30-14:30,,
47.1975406,-1.5887509,restaurant,,Les Usines,Mo-Fr 07:00-19:00,,
47.1976372,-1.5892122,restaurant,regional,Chez Marie,Mo 10:00-16:00; Tu-Fr 10:00-20:00,,
47.2306366,-1.6284692,restaurant,asian,Le Bol,"Mo-Th 11:30-15:00,17:30-21:30; Fr 11:30-15:00",,
47.2175959,-1.5625071,restaurant,french,Aristide,Mo-Sa 07:00-00:00; Su 07:00-24:00,,
47.2150811,-1.5604657,restaurant,malagasy;indian;asian,Aux Mille Délices,"Mo-Sa 12:00-15:00,19:00-22:00; Tu 12:00-15:00",,
47.2180885,-1.5431749,restaurant,vietnamese,Miên Tây,"Mo-Sa 11:30-14:30, 19:00-23:00",,
47.2011246,-1.6787079,restaurant,,Le Breton,,,
47.2003106,-1.6773243,restaurant,,Le Jean Bart,,,
47.1983227,-1.6734167,restaurant,,Le Relais du bac,,,
47.2248385,-1.5654890,restaurant,,Panda & Co,Tu-Sa 12:00-14:00; Fr-Sa 19:00-21:00,,
47.2411271,-1.5574085,restaurant,burger,Berlin 1989,,,
47.2177391,-1.5634328,restaurant,french,L'Assise,,,
47.2122045,-1.5617915,restaurant,,Le Cambronne,"Mo-Th 12:00-14:30,19:00-22:30; Fr,Sa 12:00-14:30,19:00-23:15; Su 12:00-14:30,19:00-22:00",,
47.2187260,-1.5510055,restaurant,,Oh k-fée d'Mj,"Tu-Fr 08:00-18:00; Sa 09:00-19:00,19:00-21:30; Su 10:00-17:00",only,yes
47.2310274,-1.6282954,restaurant,,Spok,Mo-Fr 09:00-15:00,,
47.1951635,-1.5821314,restaurant,crepe;burger,La Reine Blanche,,,
47.2018652,-1.5537135,restaurant,international,Labo Diva,Mo-Fr 11:00-15:00,,
47.2125262,-1.5601875,restaurant,asian,Dimfong,"Tu-Su 12:00-14:00,19:00-22:00",,
47.2678989,-1.4090471,restaurant,pizza,Pecorino,,,
47.2296413,-1.5718824,restaurant,crepe,Crêp'Galettes,"Tu 09:00-12:30,15:45-19:15, We 09:00-12:30,15:30-19:15, Th 09:00-12:30,15:30-19:16, Fr 09:00-12:30,15:00-19:15, Sa 07:00-12:30",,
47.2954021,-1.4960249,restaurant,burger;regional,Merci Bernard,Mo-Fr 11:00-15:00; Fr-Sa 18:00-22:00,,
47.2149844,-1.5573239,restaurant,,Kraft,Tu-Sa 09:30-21:00,yes,
47.2215937,-1.5549920,restaurant,french,Cuit Lu Cru,"Mo,Tu,Th,Fr 12:00-13:30; Tu-Sa 19:30-21:30",,
47.2273034,-1.5429294,restaurant,french,Le Bistro des Enfants Nantais,Tu-Sa 12:00-14:00; Fr-Sa 19:00-21:00,,
47.2515024,-1.4999726,restaurant,,Caddy's,,,
47.2794625,-1.4607417,restaurant,asian,Au Bon Accueil,"Mo-Sa 11:50-14:30,18:50-22:30; Su 11:50-14:30",,
47.2066975,-1.5491908,restaurant,salad;wrap,Salad'île,Mo-Fr 11:30-14:30,,
47.2217955,-1.5577009,restaurant,alsacian,Flam's,"Mo 12:00-14:00; Tu-Th 12:00-14:00,19:00-22:00; Fr 12:00-14:00,19:00-23:00; Sa 12:00-15:00,19:00-23:00; Su 12:00-15:00",,
47.2197084,-1.5596311,restaurant,international,Le monde dans un bol,Mo-Fr 12:00-14:15,yes,no
47.2196405,-1.5597250,restaurant,indonesian,La Javanaise,"Tu-Fr 12:00-14:00,19:30-22:00",,
47.2087957,-1.5394615,restaurant,french,Chromosome Restaurant,Mo-Fr 12:00-14:00;SH off,,
47.1943271,-1.6265671,restaurant,french;regional,L'Estacade,,,
47.2166815,-1.5585572,restaurant,,Chez les filles,Mo-Sa 08:00-21:00,,
47.2372250,-1.5861030,restaurant,japanese,Beausejour Sushi,"Mo-Sa 12:00-14:30,19:00-22:00",yes,yes
47.2392387,-1.5899446,restaurant,indian,Rajasthan,Tu-Su,,
47.2155894,-1.5529556,restaurant,,Curry house,,,
47.2117153,-1.5604160,restaurant,,L'étoile d'orient,,,
47.2114584,-1.5518141,restaurant,french;crepe,La machine à crêpes,"Mo-We 11:30-14:30; Th,Fr 11:30-14:30,19:00-21:30",,
47.2144698,-1.5660614,restaurant,,Café Kléber,"Mo-Th 08:00-15:00,17:30-24:00; Fr,Sa 00:00-02:00,08:00-15:00,17:30-24:00; Su 00:00-02:00",,
47.2689040,-1.4870801,restaurant,,Chez Lizette,,,
47.2146881,-1.5380603,restaurant,,Le Café Gauchet,"Mo 11:30-14:00; Tu-Fr 11:30-14:00,19:00-22:00",,
47.2047053,-1.5751484,restaurant,brasserie,Le Tricorne,,,
47.2130610,-1.5591435,restaurant,ramen,Ramen Ya,Mo-Su 11:30-22:00,,
47.2196120,-1.5341746,restaurant,african,Domoro,"Mo-Sa 12:00-14:00,19:00-23:00; Fr,Su 19:00-23:00",,
47.1992687,-1.6709108,restaurant,french,Le Ver Luisant,,,
47.2198479,-1.5562711,restaurant,,Mon Bento,,,
47.2112640,-1.5756896,restaurant,french,La Cantine du Général,,,
47.2098366,-1.5505131,restaurant,,Toqué du bocal (fermé définitivement),"Mo-Fr 11:30-15:30, Sa-Su off",,
47.2328361,-1.5331949,restaurant,french,L'Abélia,"Tu-Fr 12:00-15:00,19:30-23:45; Sa 12:00-16:00,19:30-23:45",,
47.2298377,-1.6386080,restaurant,american,Black Angus,,,
47.1843295,-1.4777807,restaurant,asian,,,,
47.1909023,-1.4883400,restaurant,french,Courtepaille,Mo-Su 11:30-23:00,,
47.2303237,-1.6274217,restaurant,french,Edith et Marcel,,,
47.2304338,-1.6278052,restaurant,italian,Rivazza,,,
47.2303769,-1.6275992,restaurant,,Dubble,,,
47.2064357,-1.5547156,restaurant,,À table naturellement,Mo-Fr 11:30-17:30; Sa 11:00-15:00,yes,
47.2128495,-1.5505992,restaurant,seafood;sandwich,Le Morse,"Mo-We 12:00-14:30; Th-Sa 12:00-14:30,18:00-22:30",,
47.2168465,-1.5553497,restaurant,regional,Maison Paganelli,"Th-Sa 10:30-24:00, Tu,We 10:30-14:30,18:00-24:00",,
47.2108203,-1.5494940,restaurant,,L'atelier d'Alain,,,
47.2247621,-1.6458597,restaurant,,Resto'Shoe,,,
47.2191220,-1.5617306,restaurant,,Le Rince Cochon,"Mo-Fr 12:00-14:00,19:00-21:00",,
47.2112569,-1.5709385,restaurant,,Côté Jardin,,,
47.2118879,-1.5657976,restaurant,,Café Jul'Mar,,,
47.2131488,-1.5606649,restaurant,burger,L'Entre 2 verres,"Tu,We 19:00-23:00; Th 19:00-24:00; Fr,Sa 00:00-01:00,19:00-24:00; Su 00:00-01:00",,
47.2127115,-1.5604063,restaurant,italian;pizza;pasta;burger,La 500,"Mo-Th 12:00-14:00,19:00-22:00; Fr,Sa 12:00-14:30,19:00-23:00",,
47.2472520,-1.5775941,restaurant,,L'Auberge du Cens,"Tu,Su 12:00-13:45; We-Sa 12:00-13:45,19:15-21:30",,
47.1747911,-1.6136378,restaurant,french,Courtepaille,"Mo-Th 11:30-15:00,18:30-22:30; Fr 11:30-15:00,18:30-23:00; Sa,Su 11:30-23:00",,
47.2156541,-1.5554504,restaurant,asian,Tik Tak,Mo-We 09:00-21:30; Th-Su 11:30-21:30,,
47.2308968,-1.6283727,restaurant,crepe,Ker Juliette,,,
47.2068397,-1.5639081,restaurant,,Le Point Bar,"Th, Fr 12:00-15:00, 18:30-02:00; Mo-We 12:00-15:00, 09:00-18:00, 09:00-18:00; Sa 18:30-02:00",,
47.2886900,-1.4334637,restaurant,,Au Chemin Nantais,,,
47.2884681,-1.4349154,restaurant,,Table 23,Mo-Fr 12:00-14:00,,
47.2078229,-1.5427890,restaurant,,Café Vatel,Mo-Fr 08:00-19:30,,
47.2183753,-1.5406703,restaurant,moroccan,Le petit Paris,Mo-Fr 12:00-14:00,,
47.2184859,-1.5400714,restaurant,african,Chez Mupela,,,
47.2254435,-1.5240886,restaurant,pizza,La cave à Pépé,,,
47.2283536,-1.5780602,restaurant,pizza,Pizza Béné,Tu-Su 18:00-23:30,,
47.2175537,-1.5554365,restaurant,russian,M. Strogoff,"Tu-Sa 12:00-14:30, Tu-Th 19:00-21:30, Fr,Sa 19:00-23:00",,
47.2176060,-1.5556323,restaurant,french,N° 23,,,
47.2173575,-1.5554603,restaurant,french,La Papotière,Mo-Fr 10:00-18:00,,
47.2281873,-1.5618651,restaurant,coffee_shop,Le Noble Joué,,,
47.2170909,-1.5497244,restaurant,,Le fou du roi,"Mo-Fr 12:00-14:30,19:00-23:00; Sa,Su 12:00-14:30,19:00-24:00",,
47.2160732,-1.5528959,restaurant,italian,Caffè Luigi,,,
47.2629169,-1.5674295,restaurant,,Spok,Mo-Fr 09:00-15:00,,
47.2633685,-1.5685005,restaurant,french,La cantine d'Albert,Mo-Fr 12:00-14:00,,
47.2225263,-1.6269162,restaurant,italian,Carrément Italy,,,
47.2173012,-1.5452570,restaurant,alsatian,L'Alsacien,,,
47.2287917,-1.5334197,restaurant,french,Les agenets,Mo-Fr 06:15-14:00,,
47.2318011,-1.5377430,restaurant,pizza,Dominos,,,
47.2188765,-1.5610962,restaurant,international,Mata Hari,"Tu-Sa 10:00-15:00,18:00-02:00",yes,
47.2186229,-1.5614188,restaurant,crepe,L'Optimist,"Mo 12:00-14:00, 19:00-21:00; Tu,We 12:00-14:00; Th-Sa 12:00-14:00, 19:00-21:00",,
47.2184250,-1.5616980,restaurant,french,Dilemme,"Tu 12:00-14:00; We-Fr 19:30-22:00; Sa 12:00-14:00, 19:30-22:00",,
47.2204292,-1.5630648,restaurant,french,Meraki,"Mo-Fr 12:00-14:00,18:00-21:00",yes,
47.2178861,-1.5621786,restaurant,french,Le Themis,Mo-Fr 07:30-20:00,,
47.2187678,-1.5609640,restaurant,pizza,Le 21,,,
47.2199574,-1.5591846,restaurant,lebanese,La maison de Jany,"Tu-Th 09:00-20:00; Fr,Sa 09:00-22:00; Su 09:00-17:00",,
47.2195423,-1.5598442,restaurant,brazilian,A Carioca,"Tu-Fr 12:00-14:00,19:30-22:00; Sa 19:30-22:00",,
47.2170792,-1.5597845,restaurant,indian,Wandi,,,
47.2172825,-1.5601491,restaurant,,Le Mercœur,,,
47.2172007,-1.5600026,restaurant,,Je n'aime que toi,,,
47.2385012,-1.5882003,restaurant,chinese,Restaurant Bar Tan,Mo 08:00-16:00; Tu-Fr 08:00-22:00; Sa 11:00-22:00; Su 16:00-22:00,,
47.2359371,-1.5841697,restaurant,barbecue,L'Odéon,,,
47.2357764,-1.5839536,restaurant,bistro,La Charmille,,,
47.2170579,-1.5597347,restaurant,hawaiian,Pokawa,"Mo-Fr 11:30-14:30,18:30-22:30; Sa 11:30-16:00,18:30-22:30; Su 18:30-22:30",,
47.2213126,-1.5592186,restaurant,,La Fourchette du marché,,,
47.2214704,-1.5592545,restaurant,,Le Palais Bahia,,,
47.2192518,-1.5620464,restaurant,burger;french;international,Bonbourg,,,
47.2190384,-1.5623609,restaurant,burger;sandwich,En Cuisine,,,
47.2353199,-1.5827277,restaurant,french,Le Longchamp,Mo-Fr 07:00-19:30; Sa 08:00-12:00,,
47.2936513,-1.5263765,restaurant,,Le Manoir de la Régate,"Mo-Sa 12:00-14:00,19:30-22:00",,
47.2191300,-1.5624226,restaurant,french,Le Prologue,"Mo,We 09:00-14:30; Tu 09:00-14:30,19:00-22:00; Th 09:00-14:30,19:00-22:30; Fr 09:00-14:30,19:00-23:00; Sa 19:00-23:00",,
47.2241878,-1.5592648,restaurant,,Gwaien,,,
47.2221253,-1.5593324,restaurant,crepe,L'Grain de blé,"Tu-Sa 12:00-14:00,19:00-22:00",yes,
47.2147779,-1.5642858,restaurant,indian,India Tandoor,,,
47.2146156,-1.5638755,restaurant,japanese,Izushi,"Tu-Sa 11:30-14:30,17:30-22:30; Su 17:30-22:30",yes,
47.2198538,-1.5636492,restaurant,,Le Sémaphore,"Mo-We 11:00-15:00; Th,Fr 11:00-15:00,19:00-23:00",,
47.1867294,-1.4561061,restaurant,,Le Forum,,,
47.2491193,-1.5025239,restaurant,,Vertical'Art,Mo-Fr 11:00-23:00; Sa-Su 09:00-21:00,,
47.2142990,-1.5631744,restaurant,french,Chez Franklin,"Tu-Sa 10:00-14:00,19:00-23:00",,
47.2138316,-1.5637864,restaurant,french,Les Arcades,Mo-Sa 08:00-23:00,,
47.2137142,-1.5635042,restaurant,crepe,Pizzeria Agapè,"Tu-Sa 12:00-14:00, 19:00-22:30",yes,yes
47.2134759,-1.5632783,restaurant,teahouse,Manĝi,Mo-Sa 10:30-19:30,,
47.2140047,-1.5635641,restaurant,seafood,La bourriche,,,
47.2121044,-1.5619100,restaurant,pizza;antipasti,Donatello,"Tu-Fr 12:00-14:00,19:00-22:30; Sa,Su 19:00-22:30",,
47.2333508,-1.5661441,restaurant,pizza,Basilic & Co,"11:30-14:00,18:00-22:00; Fr,Sa 11:30-14:00,18:00-22:30",,
47.2111597,-1.5614027,restaurant,mexican,La Salerosa,"Tu,We 12:00-14:00; Th,Fr 12:00-14:30,19:00-23:00; Sa 12:00-15:00,19:00-23:00",,
47.2211267,-1.5638271,restaurant,french,L'Atelier des Terroirs,"Mo-Fr 12:00-14:00 || ""evenings by appointment""",,
47.2124688,-1.5601847,restaurant,french,Maison Bagarre,"Mo-Sa 12:00-14:00,19:00-22:00",,
47.2213097,-1.5559649,restaurant,african,Teranga,Tu-Su 19:00-02:00,,
47.2221540,-1.5563177,restaurant,african,Le K gourmand,"Mo-Fr 18:30-22:15; Sa,Su 15:00-22:15",,
47.2128668,-1.5602044,restaurant,,Le BoudOir,"Mo-Su 11:45-15:00,18:45-22:30",,
47.2402017,-1.5136625,restaurant,french,2 Potes au feu,"Mo 12:00-15:00; Tu-Sa 12:00-15:00,19:00-22:00",,
47.2210515,-1.5553607,restaurant,asian,L'Orchidée,"Mo-Sa 12:00-14:00,19:30-22:00; We closed",,
47.2179277,-1.5428941,restaurant,french,O Bistrot Quai,"Mo 07:30-18:00; Tu-Fr 07:30-21:00; Sa,Su ""Pour les groupes sur réservation et privatisation""",,yes
47.2066382,-1.5491567,restaurant,,La Grande Barge,"Tu 11:30-12:00, 17:00-20:00; We 11:30-12:00, 15:00-20:00; Th,Fr 11:30-12:00, 15:00-01:00",,
47.2191920,-1.5551501,restaurant,barbecue,Bunch,"Mo-Th 11:30-14:00,19:00-23:00; Fr,Sa 18:00-24:00",,
47.2195984,-1.5553419,restaurant,japanese,Sushi Design,"Mo-Sa 11:30-14:00,18:15-22:00; Su 18:15-22:00",,
47.2194111,-1.5556223,restaurant,french,Le P'tit Tonneau,"Tu,We 12:00-15:00,19:30-22:30; Th-Sa 12:00-15:00,19:30-23:00",,
47.2177098,-1.5567634,restaurant,italian,Ragazzi Da Peppone,"Mo-Th 12:00-14:15,19:00-22:00; Fr 12:00-14:15,18:00-23:00; Sa 12:00-14:30,18:00-23:00; Su 12:00-14:30,18:00-22:00",,
47.2493655,-1.5509103,restaurant,coffee_shop,Le Restaurant Gourmand,,,
47.2487155,-1.5526128,restaurant,coffee_shop,Le Campus,,,
47.2069425,-1.5477727,restaurant,french,Le BDL,"Mo-Th 12:00-14:30, 19:00-22:00; Fr 12:00-14:30",,
47.2134486,-1.5609659,restaurant,italian,Dolce Vita,Mo-Su 09:30-23:00,,
47.2130600,-1.5608297,restaurant,,Bao & Bao,,,
47.2127797,-1.5592540,restaurant,moroccan;couscous,Monseigneur,,,
47.1987630,-1.6110848,restaurant,,L'Echappée,,,
47.1960771,-1.6160119,restaurant,,,,,
47.2143303,-1.5405709,restaurant,,Buvette,"Mo,Tu 10:00-14:30; We-Fr 10:00-14:30,18:00-22:30",,
47.2148366,-1.5584392,restaurant,ice_cream;crepe;pancake,Royale Factory,,,
47.2063546,-1.5968146,restaurant,,,,,
47.2074717,-1.5937544,restaurant,,,,,
47.2057554,-1.5513068,restaurant,,Rio dos Camaroes,,,
47.2278491,-1.5703375,restaurant,french,Au petit Raphaël,"Mo-Tu 12:00-14:15; We-Fr 12:00-14:15,19:45-21:00",,
47.2075557,-1.5322828,restaurant,,Restaurant du Convervatoire,,,
47.2222873,-1.6060228,restaurant,,,,,
47.2047964,-1.5619965,restaurant,french,LuluRouget,"Tu-Sa 12:00-13:30,19:45-21:30",,
47.2066778,-1.5550911,restaurant,turkish,L'Anatolia,"Mo-Fr 12:00-14:30,19:00-23:30; Sa 19:00-23:30",,
47.2153243,-1.5523402,restaurant,thai,Santosha,,yes,yes
47.2125134,-1.5372661,restaurant,international,Eden Garden,"Mo,Su 12:00-22:00; Tu-Th 12:00-23:00; Fr-Sa 12:00-00:00",,
47.2713901,-1.6233145,restaurant,,Le Relais des Cens,,,
47.2101788,-1.5507999,restaurant,asian,Le diamant d'Asie,,,
47.2599806,-1.5325445,restaurant,french,Les Terrasses de l'Erdre,Mo-Su 10:00-19:00; Th-Sa 10:00-23:00,,
47.2103118,-1.5508945,restaurant,lebanese,Le Mezz,Mo-Fr 11:30-16:00,,
47.2321133,-1.5224319,restaurant,asian,Fast2Riz,Mo-Su 19:00-00:45,,
47.2129755,-1.5550526,restaurant,italian,+39,"Mo-Th 12:00-14:30,19:30-23:00; Tu off; Fr,Sa 12:00-14:30,19:30-00:00; Su 12:00-15:00,19:30-23:00",,
47.2186135,-1.5641791,restaurant,,Analude,,,
47.2042410,-1.5679859,restaurant,coffee_shop;bistro,Ora,Mo-Sa 09:00-19:00,yes,
47.2004373,-1.5894350,restaurant,japanese,EDO,"We-Sa 12:00-14:30,18:00-22:00; Su 17:30-21:00",,
47.2042574,-1.5684137,restaurant,italian,La Bocca,Mo-Fr 12:00-14:00,,
47.1936056,-1.5465741,restaurant,pizza,Sale Et Pepe Rezé,,,
47.2153454,-1.5534253,restaurant,burger,L'Artisan du Burger des grands Chefs,"Mo-Th,Su 11:30-22:00; Fr,Sa 11:30-22:30",yes,
47.2150294,-1.5647604,restaurant,pizza,La Cucina,"Tu-Sa 12:00-14:00,19:00-21:45",,
47.1981553,-1.5857423,restaurant,regional,Vintage LTD,Mo-Fr 09:00-19:00,,
47.1982460,-1.5854423,restaurant,italian,L'uccello,,,
47.2142903,-1.5477533,restaurant,,La Cuillère en Coin,,yes,
47.2174654,-1.5562355,restaurant,,L’Éthiquête,Mo-Fr 12:00-15:00; Sa 11:00-16:00,yes,only
47.2383514,-1.5140637,restaurant,pizza,Picheria,"Mo-Tu 11:30-14:00,18:30-21:00; Th 11:30-14:00,18:30-21:30; Fr 11:30-14:00,18:30-22:00; Sa 18:30-22:00; Su 18:30-21:30",,
47.2279364,-1.5486744,restaurant,french;chilean,Le Parallèle,"We-Su 12:00-14:30,19:00-22:30; Tu 12:00-14:30",,
47.2113445,-1.5517025,restaurant,,Safe Place,,,
47.2115247,-1.5518703,restaurant,mauritian,Gadjaks,,,
47.2252290,-1.5295461,restaurant,,Le dominicain,,,
47.2165468,-1.5557938,restaurant,african,Domoro,"Tu-Sa 12:00-14:00,18:00-22:00; Fr 18:00-22:00",,
47.2149651,-1.5549322,restaurant,basque,Le bistrot basque,"Mo-Sa 12:00-14:00,19:30-22:30; Su 12:00-14:00",,
47.2990215,-1.5500977,restaurant,,Auberge de L'Erdre,,,
47.2160574,-1.5588194,restaurant,noodle,Noï,,yes,no
47.2394204,-1.5569058,restaurant,,Le Waldor,,,
47.2330085,-1.5776284,restaurant,,La Brasserie,"Tu-Fr 10:00-15:00,18:00-23:00; Sa 10:30-15:00,18:00-23:00; Su 10:30-15:00",,
47.2451930,-1.6052978,restaurant,japanese,Naoki,"Tu-Th 11:30-14:00; Fr,Sa 11:30-14:00,17:30-20:00",,
47.2059128,-1.5593845,restaurant,,,,,
47.2551085,-1.5776408,restaurant,steak_house,Méli Mélo,Mo-Fr 11:30-14:30,,
47.2334799,-1.5656008,restaurant,asian,Délices d'Asie,Tu-Sa 10:00-20:00,,
47.2353178,-1.5442520,restaurant,,Interlude,Mo-Fr 12:00-13:45,,
47.2076536,-1.5000696,restaurant,,Le Nantelier,"We-Sa 12:00-15:00,18:45-21:30",,
47.2092368,-1.5482719,restaurant,,Le Magellan,,,
47.2157723,-1.5343551,restaurant,french,La Bocalerie,Mo-Fr 12:00-15:00,,
47.2052369,-1.5369931,restaurant,pizza;italian,La villa Médicis,,,
47.2226100,-1.5460612,restaurant,,Les saveurs afghanes,,,
47.2232944,-1.6314370,restaurant,italian,Vapiano,,,
47.2262200,-1.6304345,restaurant,,Jo le boucher,,,
47.2262501,-1.6306967,restaurant,,Fuxia,,,
47.2878190,-1.4890981,restaurant,,Le 19,Mo-Su 09:00-19:00,,
47.2133896,-1.5618451,restaurant,italian,Maria,Mo-We 12:00-00:30; Th-Sa 12:00-01:00; Su 12:00-00:30,,
47.2059415,-1.5461712,restaurant,japanese,SUKO,"Mo-Fr 11:30-14:30,17:30-22:00; Sa,Su 18:00-22:00",,
47.2059151,-1.5458034,restaurant,pizza,La Pizza de Nico,"Mo-Sa 11:30-14:00,18:00-22:00; PH,Su 18:00-22:00",,
47.2142533,-1.5524155,restaurant,french,Les 3 Brasseurs,"Mo-Su 08:00-00:00; Fr,Sa 08:00-01:00",,
47.2157241,-1.6263011,restaurant,organic,Rosemary Foodtruck,"Mo,Th 11:30-14:00",yes,
47.2508969,-1.5545081,restaurant,,Rosemary Foodtruck,"Tu,Th 11:30-14:00",yes,
47.2448841,-1.5257022,restaurant,french,Le Chalet,,,
47.2647833,-1.5264060,restaurant,pizza;burger;kebab;sandwich,Les délices de la beaujoire,Mo-Su 11:00-23:00,,
47.2195316,-1.6207687,restaurant,asian,Duc Nghia,"Mo-Su 12:00-14:30,18:45-22:30",,
47.2237810,-1.6276299,restaurant,sandwich,Ange café,,,
47.1788386,-1.6204953,restaurant,international,Cantine d'école,24/7,,
47.2411367,-1.5732671,restaurant,,Le Relais de la Close,,,
47.2042296,-1.5753406,restaurant,crepe,Krampouezh Naoned,"Tu-Fr 11:30-14:30, Mo-Fr 17:00-19:30",,
47.2041496,-1.5753844,restaurant,french,Le Havre,Mo-Fr 10:00-17:00,,
47.1984675,-1.5844999,restaurant,regional,Chez Hugo,"Mo-Th 11:45-14:15; Fr 11:45-14:15, 15:00-02:00",,
47.1988250,-1.5830421,restaurant,regional,Marcel,Mo-Fr 11:45-14:00,,
47.2268177,-1.5541333,restaurant,,La Cocotte solidaire,"Tu-Fr 09:30-12:30, Sa,Su 10:00-13:00, Th 16:30-19:30",,
47.2442892,-1.5339506,restaurant,,Le d'Artagnan,,,
47.2192881,-1.5474794,restaurant,french,Le Café du Musée,Mo-Su 11:00-19:00; Tu off; Th 11:00-21:00,,
47.1949294,-1.5828705,restaurant,french,La Guinguette,"Mo 12:00-14:00,19:00-22:00; Tu-Su 12:00-22:00; Dec 25 off; Jan 1 off",,
47.2588445,-1.5009960,restaurant,,Rest’O bio Nantes,Mo-Fr 11:30-14:00,yes,
47.2189495,-1.5376122,restaurant,asian,Pho Kim 13,"Mo, We-Su 11:30-14:30, 19:00-22:30",,
47.1956391,-1.5365590,restaurant,indian,Taj Mahal,,,
47.2189962,-1.5573471,restaurant,japanese,Côté Sushi,"Mo-Fr 11:00-14:30,18:30-22:30",,
47.2371021,-1.4720028,restaurant,,Jano,,,
47.2412512,-1.6762780,restaurant,burger;french,La Fraterne,,,
47.1351003,-1.7325908,restaurant,,Les petits carreaux,Mo-Fr 07:30-15:30,,
47.1438724,-1.6951052,restaurant,crepe,À Deux Pas du Lac,,,
47.1842086,-1.5458579,restaurant,turkish,Les Épices,"Mo-Sa 11:00-15:00,18:00-23:15; Su 18:00-23:15",,
47.2719845,-1.4323461,restaurant,,L'Envol,,,
47.2130289,-1.5771833,restaurant,,La table de Yo,,,yes
47.2069402,-1.5042432,restaurant,crepe,La Gourmandise,,,
47.2466736,-1.5028840,restaurant,burger;steak_house;barbecue,La Vacherie,Mo-Sa 12:00-14:00; Mo-Sa 19:00-22:00,,
47.2485512,-1.5136591,restaurant,regional;crepe,Tante Yvette,,,
47.2484875,-1.5134606,restaurant,italian,Zio Gino,,,
47.2483036,-1.5135169,restaurant,,Joosbayoo,,,
47.2284735,-1.5773231,restaurant,,La Tortore,,,
47.1998929,-1.5201993,restaurant,lebanese;burger,Classe Epice,Tu-Sa 11:30-14:30,,
47.3002153,-1.5010635,restaurant,,La Comédie,,,
47.2402122,-1.5309353,restaurant,brasserie,La Pirogue,,,
47.2080685,-1.5433699,restaurant,french,Vatel Restaurant,"Tu-Th 12:00-13:00,19:00-20:30; Fr,Sa 12:00-13:00,19:00-21:00",,
47.1927409,-1.5552252,restaurant,,La table d'Edouard,,,
47.1967380,-1.5397753,restaurant,,Le Rouge Ardoise,"Th,Fr 11:00-14:00",,
47.2152299,-1.5386955,restaurant,,Le Clin d'oeil,Mo-Fr 11:00-16:30,yes,
47.2151275,-1.5384977,restaurant,,Spok Nantes Gare Sud,Mo-Fr 08:00-16:00,,
47.2164712,-1.5577427,restaurant,,L’Atelier des Délices,Tu-Sa 11:30-18:30; Su 10:30-14:30,,
47.2310720,-1.6381853,restaurant,german,Berlin 1989 - Die manufaktur,,,
47.2132244,-1.5654791,restaurant,french,Roza,"Mo-Fr 12:30-14:00,19:00-22:00",,
47.2162752,-1.5636729,restaurant,,Canopée,,yes,
47.1854820,-1.4614316,restaurant,,Bistro Régent,,,
47.2132998,-1.5452581,restaurant,pizza,Sale & Pepe,,,
47.1538653,-1.4745381,restaurant,seafood,Un Homard à la Frémoire,"Sa, Su 11:00-21:00",,
47.1963097,-1.5387239,restaurant,,Citrus café,Mo 12:00-15:00; Tu-Fr 09:00-15:00,,
47.2039640,-1.5663071,restaurant,french,Les Funambules,"Mo,Tu 12:00-22:30; We 12:00-23:00; Th-Sa 12:00-24:00; Su 11:00-16:30",,
47.2237805,-1.5545856,restaurant,italian,Emporietto,,,
47.2973254,-1.4934268,restaurant,,La casa bleue,,,
47.2275150,-1.5447467,restaurant,,Dai Lôc,Mo-Su 11:45-14:30; Tu-Sa 19:30-22:30,,
47.2244231,-1.6393898,restaurant,burger,AK Shelter,,,
47.1616683,-1.5470282,restaurant,,L'Orangerie,,,
47.1616246,-1.5473698,restaurant,,Le point virgule,,,
47.1605298,-1.5469207,restaurant,italian,Italy's Diner,,,
47.1604065,-1.5470407,restaurant,,Bistr'Océan,,,
47.1605481,-1.5471085,restaurant,crepe,Crêperie Alizé,,,
47.1909324,-1.4922877,restaurant,sushi,Yukito,,,
47.2580868,-1.5893150,restaurant,french,Restaurant Quintessia,,,
47.2749903,-1.4619861,restaurant,,Brison Traiteurs,Mo-Fr 09:00-15:00,,
47.2146342,-1.5666170,restaurant,créole,La Canne à Sucre,Tu-Sa 10:00-02:00,,
47.1932704,-1.5485962,restaurant,,Bla Bla Bar,,,
47.2773920,-1.5059155,restaurant,,Chez Quentin,,,
47.2161844,-1.5346671,restaurant,burger;pasta,Tonton et Lulu,"Mo-Th 11:45-12:15; Fr 11:45-12:15,19:00-21:30",,
47.2577587,-1.5753525,restaurant,,Le BL,,,
47.1742677,-1.6246958,restaurant,turkish,,,,
47.2143268,-1.5551706,restaurant,italian,3ème Arrondissement de Nantes,,,
47.1886929,-1.5009282,restaurant,,Chez Pascal & Flo,,,
47.2152037,-1.5531926,restaurant,japanese;hawaiian;mexican,Fuso,,,
47.2050478,-1.5607090,restaurant,,dubble,Mo-Fr 08:00-15:00,,
47.2059259,-1.5596890,restaurant,poke,Pokawa,"Mo-Fr 11:30-14:30,18:30-22:30; Sa,Su 11:30-22:30",,
47.2045212,-1.5686403,restaurant,soup,We love soupes,"Mo,Tu 11:30-14:00; We-Fr 11:30-14:00,19:00-21:00",,
47.2610722,-1.6462657,restaurant,,Au Père Peinard,,,
47.2572789,-1.5130468,restaurant,,La Banque,,,
47.2335924,-1.5861779,restaurant,vietnamese,La Cascade,,,
47.1574793,-1.6022198,restaurant,,Grande tablée,,,
47.2247567,-1.6264099,restaurant,pizza;tex-mex;mexican,L'Hacienda,,,
47.2116032,-1.5469777,restaurant,,Le lion et l’agneau,,,
47.1792918,-1.4075564,restaurant,,Jean d'la Queue,"Su-Fr 12:00-14:30,19:00-22:00; Sa 12:00-14:30,19:00-23:30",,
47.1794677,-1.4084981,restaurant,,Chez Pipette,,,
47.2710952,-1.5206953,restaurant,,Le comptoir libanais,,,
47.2024684,-1.5531036,restaurant,african,Le Kilimandjaro 44,,,
47.1438669,-1.4158434,restaurant,,Le Fiacre,,,
47.2751316,-1.5058627,restaurant,,,,,
47.2507511,-1.5201215,restaurant,burger;chicken;fish;fish_and_chips;french;grill;pasta,Flunch,"Mo-Fr 11:30-14:30, 18:30-21:00; Sa 11:30-21:30; Su 11:30-21:00",,
47.2275771,-1.5815333,restaurant,,Food labo,,,
47.2198623,-1.5591949,restaurant,haitian,Haïti Chérie Bar,,,
47.2711680,-1.6228412,restaurant,,Café Pépone,,,
47.1716091,-1.5430274,restaurant,,Le Charles,,,
47.2525958,-1.4992602,restaurant,vietnamese;thai,Yummy,,,
47.1881054,-1.4701652,restaurant,italian;pasta;pizza,Villa Luca,,,
47.1818893,-1.5455209,restaurant,pizza,Emilio Pizza,,,
47.1876574,-1.4669258,restaurant,,Aloha,,,
47.2353125,-1.5827211,restaurant,pizza,Gasparelli,"Tu-Sa 12:00-14:30, 19:00-22:00",,
47.2130140,-1.5549707,restaurant,french,L'Instant,"Tu-Sa 12:00-14:00,19:30-22:00",,
47.2307116,-1.6284517,restaurant,salad,La Fringale,,,
47.2027262,-1.5536392,restaurant,german;burger,Berlin 1989 Republik,"Tu-Fr 11:45-02:00; Sa 11:45-24:00; Su 00:00-01:00,11:45-17:00",yes,
47.2115828,-1.5467456,restaurant,japanese;ramen,Ichi-go Ichi-e Ramen,Mo-Fr 12:00-14:00; Tu-Sa 19:00-22:00,,
47.2115738,-1.5463485,restaurant,international,Stick,Mo-Fr 11:30-14:00,yes,
47.2113414,-1.5453936,restaurant,,Au Comptoir de l'Épicier,Mo-Fr 12:00-14:00,,
47.2100487,-1.5870309,restaurant,,Merci Émile,"Mo-We 08:30-15:00; Th, Fr 08:30-21:30",,
47.2972416,-1.5520134,restaurant,,Le Bouquet Garni,,,
